address,federal_district,region,city,fias_id,timezone,geo_lat,geo_lon,population
"Респ Адыгея, г Адыгейск",Южный,Адыгея,Адыгейск,ccdfd496-8108-4655-aadd-bd228747306d,UTC+3,44.878414,39.190289,12689
г Майкоп,Южный,Адыгея,Майкоп,8cfbe842-e803-49ca-9347-1ef90481dd98,UTC+3,44.6098268,40.1006606,144055
г Горно-Алтайск,Сибирский,Алтай,Горно-Алтайск,0839d751-b940-4d3d-afb6-5df03fdd7791,UTC+7,51.9581028,85.9603235,62861
"Алтайский край, г Алейск",Сибирский,Алтайский,Алейск,ae716080-f27b-40b6-a555-cf8b518e849e,UTC+7,52.4922513,82.7793606,28528
г Барнаул,Сибирский,Алтайский,Барнаул,d13945a8-7017-46ab-b1e6-ede1e89317ad,UTC+7,53.3479968,83.7798064,635585
"Алтайский край, г Белокуриха",Сибирский,Алтайский,Белокуриха,e4edca96-9b86-4cac-8c7f-cc93d9ba4cd1,UTC+7,51.996152,84.9839604,15072
"Алтайский край, г Бийск",Сибирский,Алтайский,Бийск,52f876f6-cb1d-4f23-a22f-b692609fc1e0,UTC+7,52.5393864,85.2138453,203826
"Алтайский край, г Горняк",Сибирский,Алтайский,Горняк,094b3627-2699-4782-8492-4d82aac71958,UTC+7,50.9979622,81.4643358,13040
"Алтайский край, г Заринск",Сибирский,Алтайский,Заринск,142e04ef-dec1-44fa-b553-fac215764374,UTC+7,53.7063476,84.9315081,47035
"Алтайский край, г Змеиногорск",Сибирский,Алтайский,Змеиногорск,e7001b8f-d104-4873-96d4-66339f5e530a,UTC+7,51.1581094,82.1872547,10569
"Алтайский край, г Камень-на-Оби",Сибирский,Алтайский,Камень-на-Оби,810ca9c7-f10e-4def-9c48-f0aa83168ca7,UTC+7,53.7913974,81.3545053,41787
"Алтайский край, г Новоалтайск",Сибирский,Алтайский,Новоалтайск,aa288d9f-4b2a-42a6-97f0-3502dddfa383,UTC+7,53.4119759,83.9311069,73134
"Алтайский край, г Рубцовск",Сибирский,Алтайский,Рубцовск,65db5c88-c65c-43f0-9c21-13e15a032d4a,UTC+7,51.5012067,81.2078695,146386
"Алтайский край, г Славгород",Сибирский,Алтайский,Славгород,94ae181d-b153-4dd1-8a2f-12852919875f,UTC+7,52.999463,78.6459232,30370
"Алтайский край, г Яровое",Сибирский,Алтайский,Яровое,e07d57ed-22ce-4020-b59c-f7aae6f091bf,UTC+7,52.9252146,78.5729775,18085
"Амурская обл, г Белогорск",Дальневосточный,Амурская,Белогорск,c528e99b-7e81-4290-9cda-8713884472a5,UTC+9,50.9213415,128.4739471,68220
г Благовещенск,Дальневосточный,Амурская,Благовещенск,8f41253d-6e3b-48a9-842a-25ba894bd093,UTC+9,50.290659,127.527198,214397
"Амурская обл, г Завитинск",Дальневосточный,Амурская,Завитинск,7b39476f-0edb-4bc3-bb31-6cedfb2aa695,UTC+9,50.1064111,129.4391813,11481
"Амурская обл, г Зея",Дальневосточный,Амурская,Зея,581855f4-f0bc-44a5-a36e-a298279f9ec4,UTC+9,53.7340088,127.265787,25042
"Амурская обл, г Райчихинск",Дальневосточный,Амурская,Райчихинск,981b5f3a-f0b6-444f-a6fb-c2bc10804b31,UTC+9,49.7941615,129.4112492,20499
"Амурская обл, г Свободный",Дальневосточный,Амурская,Свободный,dd560dfa-3feb-48e2-aa3b-b71213e7441e,UTC+9,51.3614103,128.1219729,58594
"Амурская обл, г Сковородино",Дальневосточный,Амурская,Сковородино,260c545f-883c-440a-852c-c39a65fe4104,UTC+9,53.9871095,123.9437205,9561
"Амурская обл, г Тында",Дальневосточный,Амурская,Тында,007e010f-e110-4a55-90a7-c4acac623c9b,UTC+9,55.1546441,124.7468904,35574
"Амурская обл, г Циолковский",Дальневосточный,Амурская,Циолковский,f9ce3255-3f79-4457-919c-d180fa813b6a,UTC+9,51.762481,128.1219846,6208
"Амурская обл, г Шимановск",Дальневосточный,Амурская,Шимановск,809f0591-bb18-40a2-9fac-7d3d0a22c0bf,UTC+9,52.0051886,127.7005458,19815
г Архангельск,Северо-Западный,Архангельская,Архангельск,06814fb6-0dc3-4bec-ba20-11f894a0faf5,UTC+3,64.5394289,40.5169606,348716
"Архангельская обл, г Вельск",Северо-Западный,Архангельская,Вельск,71051070-fce3-4a4d-a9d9-cd50f6dc6310,UTC+3,61.066,42.1032789,23885
"Архангельская обл, г Каргополь",Северо-Западный,Архангельская,Каргополь,a670f317-f3c4-4dd6-9d27-fa68a8b28b6f,UTC+3,61.5009724,38.9636966,10148
"Архангельская обл, г Коряжма",Северо-Западный,Архангельская,Коряжма,782acb50-ddfa-4483-bcbd-a5e667976036,UTC+3,61.2885948,47.1003015,39629
"Архангельская обл, г Котлас",Северо-Западный,Архангельская,Котлас,93adb246-540e-40a2-a0fd-e96ca6796589,UTC+3,61.2528972,46.633242,60562
"Архангельская обл, г Мезень",Северо-Западный,Архангельская,Мезень,8a49f67f-6c48-4160-bd1d-ebc188a69269,UTC+3,65.8398078,44.2532273,3599
"Архангельская обл, г Мирный",Северо-Западный,Архангельская,Мирный,977c7606-1b37-4424-84f7-b0c66c3e4b94,UTC+3,62.7645265,40.3360076,30259
"Архангельская обл, г Новодвинск",Северо-Западный,Архангельская,Новодвинск,3b0ef6c2-9bcd-44a5-afec-2723bd8190bc,UTC+3,64.4136851,40.8208143,40612
"Архангельская обл, г Няндома",Северо-Западный,Архангельская,Няндома,491b0861-0da5-4781-9c2c-521df0ea7af6,UTC+3,61.6654674,40.2062947,22354
"Архангельская обл, г Онега",Северо-Западный,Архангельская,Онега,53e6ddd5-a1fb-4444-89a4-3952ef6f114b,UTC+3,63.9162928,38.0805031,21359
"Архангельская обл, г Северодвинск",Северо-Западный,Архангельская,Северодвинск,32747c72-c08b-4440-b340-91f48d72f9db,UTC+3,64.5625385,39.8180934,192265
"Архангельская обл, Котласский р-н, г Сольвычегодск",Северо-Западный,Архангельская,Сольвычегодск,a56a44ee-f79d-4e51-b219-c3c828c7e0c0,UTC+3,61.3319616,46.920441,2460
"Архангельская обл, г Шенкурск",Северо-Западный,Архангельская,Шенкурск,74a26d75-38a6-485a-9468-52dd7c6711fa,UTC+3,62.1057272,42.8996973,5702
г Астрахань,Южный,Астраханская,Астрахань,a101dd8b-3aee-4bda-9c61-9df106f145ff,UTC+4,46.3655652,48.0559236,520662
"Астраханская обл, г Ахтубинск",Южный,Астраханская,Ахтубинск,8d7acd62-cef4-4d5c-8057-644ee454ce6c,UTC+4,48.2752034,46.1906462,41898
"Астраханская обл, г Знаменск",Южный,Астраханская,Знаменск,54ecd5a8-83d9-4a85-ae2c-6fe6976ab716,UTC+4,48.5866291,45.7368019,29357
"Астраханская обл, г Камызяк",Южный,Астраханская,Камызяк,bc643e13-dcc5-4fa4-8cb1-94f71c5c18f4,UTC+4,46.110579,48.07333,16291
"Астраханская обл, г Нариманов",Южный,Астраханская,Нариманов,46ce55dd-e3e2-4c31-ab3c-273423c2f782,UTC+4,46.6916565,47.8502476,11386
"Астраханская обл, г Харабали",Южный,Астраханская,Харабали,08373220-e187-4094-82de-b8e0864c5f38,UTC+4,47.408999,47.2525345,18209
"Респ Башкортостан, г Агидель",Приволжский,Башкортостан,Агидель,8294b97c-7553-499e-8369-821d6eb0fdc7,UTC+5,55.8999056,53.9220144,16365
"Респ Башкортостан, г Баймак",Приволжский,Башкортостан,Баймак,874d4c58-31cd-4309-80db-8f14863efdbb,UTC+5,52.5912896,58.3110998,17710
"Респ Башкортостан, г Белебей",Приволжский,Башкортостан,Белебей,11e85c3e-c276-43b3-94e8-6b7f6cde5ac1,UTC+5,54.1034582,54.1113129,60183
"Респ Башкортостан, г Белорецк",Приволжский,Башкортостан,Белорецк,dd65b1de-c076-4126-9b56-c4b4979e2b0f,UTC+5,53.9676488,58.4100419,68804
"Респ Башкортостан, г Бирск",Приволжский,Башкортостан,Бирск,8c049a5c-f080-4052-93a9-89decf401900,UTC+5,55.4155753,55.5582214,41637
"Респ Башкортостан, г Благовещенск",Приволжский,Башкортостан,Благовещенск,da7ef573-cdbe-458e-a790-b29ad3a3d140,UTC+5,55.0499867,55.9553186,34246
"Респ Башкортостан, г Давлеканово",Приволжский,Башкортостан,Давлеканово,d820f602-8763-4f63-be89-10077a2f025b,UTC+5,54.2226707,55.0312373,24040
"Респ Башкортостан, г Дюртюли",Приволжский,Башкортостан,Дюртюли,d4ac608f-5096-4529-bab2-68a26c64272e,UTC+5,55.4848318,54.8524765,31272
"Респ Башкортостан, г Ишимбай",Приволжский,Башкортостан,Ишимбай,b3d2e10f-752d-4b90-b54b-9d6545f38ae0,UTC+5,53.4545764,56.0438751,66259
"Респ Башкортостан, г Кумертау",Приволжский,Башкортостан,Кумертау,48e38991-07fd-4aaa-b240-a7280e4a823f,UTC+5,52.7564939,55.7970197,62854
"Респ Башкортостан, г Межгорье",Приволжский,Башкортостан,Межгорье,5fd3a551-8553-4571-bfc8-2bfb211686f5,UTC+5,54.2397689,57.9614547,17353
"Респ Башкортостан, г Мелеуз",Приволжский,Башкортостан,Мелеуз,c516337d-f590-439b-83ad-6f15a9325740,UTC+5,52.9589532,55.9282838,61408
"Респ Башкортостан, г Нефтекамск",Приволжский,Башкортостан,Нефтекамск,2c9997d2-ce94-431a-96c9-722d2238d5c8,UTC+5,56.088377,54.2483061,121757
"Респ Башкортостан, г Октябрьский",Приволжский,Башкортостан,Октябрьский,abd1bc35-ec51-437a-abee-76a4f620f662,UTC+5,54.4815311,53.4655972,109379
"Респ Башкортостан, г Салават",Приволжский,Башкортостан,Салават,fc14353f-5a1d-4f22-94ea-b900bad9a9f1,UTC+5,53.3616974,55.9245224,156085
"Респ Башкортостан, г Сибай",Приволжский,Башкортостан,Сибай,d7825646-76f7-4322-a88c-42cc90cbd2b2,UTC+5,52.7204651,58.6663783,62732
"Респ Башкортостан, г Стерлитамак",Приволжский,Башкортостан,Стерлитамак,84e0b23d-82fe-40a8-8739-55e679780dc3,UTC+5,53.6300864,55.9317089,273432
"Респ Башкортостан, г Туймазы",Приволжский,Башкортостан,Туймазы,511a0136-f60c-451b-a2eb-3402103f1223,UTC+5,54.5999224,53.6950623,66849
г Уфа,Приволжский,Башкортостан,Уфа,7339e834-2cb4-4734-a4c7-1fca2c66e562,UTC+5,54.734944,55.9578468,1062300
"Респ Башкортостан, г Учалы",Приволжский,Башкортостан,Учалы,7b2b052a-49df-4aff-a36f-fb82957da2ea,UTC+5,54.3067375,59.4125461,37771
"Респ Башкортостан, г Янаул",Приволжский,Башкортостан,Янаул,21de303b-205d-4d37-81c9-63d10246e1af,UTC+5,56.2650146,54.929907,26988
"Белгородская обл, г Алексеевка",Центральный,Белгородская,Алексеевка,94969f84-fff4-4ddf-9677-b912b4b2aa3e,UTC+3,50.6299647,38.6880342,39026
г Белгород,Центральный,Белгородская,Белгород,02e9c019-ab4d-4fa0-928e-d6c0a41dc256,UTC+3,50.5976472,36.5856652,356426
"Белгородская обл, г Бирюч",Центральный,Белгородская,Бирюч,eaaf5809-d1e2-4d93-8f05-85dd598cc403,UTC+3,50.6484585,38.4005083,7842
"Белгородская обл, г Валуйки",Центральный,Белгородская,Валуйки,fe7eea4a-875a-4235-aa61-81c2a37a0440,UTC+3,50.2111207,38.0998772,35322
"Белгородская обл, г Грайворон",Центральный,Белгородская,Грайворон,51c31ef5-10b3-4011-8e1c-7e7d452afd1b,UTC+3,50.4862958,35.6663877,6234
"Белгородская обл, г Губкин",Центральный,Белгородская,Губкин,98b1ec30-6107-4f99-ae3a-9d82492f30a1,UTC+3,51.2837123,37.5347759,88562
"Белгородская обл, г Короча",Центральный,Белгородская,Короча,76fecead-fc02-459a-bce4-848698e645fe,UTC+3,50.8129041,37.1896436,5877
"Белгородская обл, г Новый Оскол",Центральный,Белгородская,Новый Оскол,f565b329-4041-4fd2-aa0a-debd5f7c3857,UTC+3,50.7633747,37.8775484,19530
"Белгородская обл, г Старый Оскол",Центральный,Белгородская,Старый Оскол,9f5e86b1-b893-43dc-9dd4-ac66573b17d1,UTC+3,51.2967101,37.8350182,221163
"Белгородская обл, г Строитель",Центральный,Белгородская,Строитель,19c9f6de-45cd-4c76-9839-abd571698ced,UTC+3,50.7845099,36.4887648,23933
"Белгородская обл, г Шебекино",Центральный,Белгородская,Шебекино,dc80ddf0-b1ac-4344-98e8-fcfa5295a0a3,UTC+3,50.4004883,36.8877889,44277
г Брянск,Центральный,Брянская,Брянск,414b71cf-921e-4bfc-b6e0-f7395d16aaef,UTC+3,53.2419535,34.3652146,415640
"Брянская обл, г Дятьково",Центральный,Брянская,Дятьково,fd37b6f0-2406-41ca-86bc-57dd58fd71f4,UTC+3,53.5958178,34.3551812,29438
"Брянская обл, г Жуковка",Центральный,Брянская,Жуковка,bd51e883-748a-4c55-ac0a-eee31be1433e,UTC+3,53.5340397,33.7302579,18269
"Брянская обл, г Злынка",Центральный,Брянская,Злынка,9491aba8-fbc1-4da8-8ede-8d49690c393a,UTC+3,52.4267015,31.7360399,5507
"Брянская обл, г Карачев",Центральный,Брянская,Карачев,6f39b866-1fed-4add-aa00-e76992516660,UTC+3,53.1296524,34.9888727,19715
"Брянская обл, г Клинцы",Центральный,Брянская,Клинцы,59cb1f1f-16f9-47eb-9487-14a6c00e8621,UTC+3,52.7529119,32.233911,62510
"Брянская обл, г Мглин",Центральный,Брянская,Мглин,a4162075-13cb-4f4a-9974-ef042c8be149,UTC+3,53.0599771,32.8468129,7916
"Брянская обл, г Новозыбков",Центральный,Брянская,Новозыбков,cf4dd9d7-d152-4140-bed2-59d8be5a4e2c,UTC+3,52.537173,31.9357991,40552
"Брянская обл, г Почеп",Центральный,Брянская,Почеп,434c6101-648e-4266-8aca-bbbc80856d7a,UTC+3,52.9154851,33.4744058,17933
"Брянская обл, г Севск",Центральный,Брянская,Севск,263c5f6f-335b-4cfa-a234-3c61488c3729,UTC+3,52.1483358,34.4918415,7282
"Брянская обл, г Сельцо",Центральный,Брянская,Сельцо,485f4c4d-aced-4b94-b975-88e72b7dcb72,UTC+3,53.3739884,34.1059172,17933
"Брянская обл, г Стародуб",Центральный,Брянская,Стародуб,78e19000-cb0d-4e86-8205-242ee9de9e75,UTC+3,52.5852257,32.760403,19010
"Брянская обл, г Сураж",Центральный,Брянская,Сураж,565317d8-daf3-4df1-bf3d-6703b0d1500f,UTC+3,53.0170888,32.3938878,11640
"Брянская обл, г Трубчевск",Центральный,Брянская,Трубчевск,7c080d22-1f3c-43b0-ba63-1e7de99724c9,UTC+3,52.5791734,33.7660547,15014
"Брянская обл, г Унеча",Центральный,Брянская,Унеча,6a2d5db9-1871-4f1d-b226-bbc6b8400a44,UTC+3,52.8461199,32.6757629,26196
"Брянская обл, г Фокино",Центральный,Брянская,Фокино,8d7c89e7-d9b9-4d7a-907c-a654b3a4d23d,UTC+3,53.4554145,34.4159238,13874
"Респ Бурятия, Кабанский р-н, г Бабушкин",Дальневосточный,Бурятия,Бабушкин,519731a7-aace-435a-9a1c-1d0051ab7913,UTC+8,51.7112755,105.8673219,4542
"Респ Бурятия, г Гусиноозерск",Дальневосточный,Бурятия,Гусиноозерск,30e1ab6c-4ee2-45ce-934a-c3435a015c29,UTC+8,51.2865048,106.5230319,23280
"Респ Бурятия, г Закаменск",Дальневосточный,Бурятия,Закаменск,0602f259-5de5-48e0-8a2c-427a5e0aef82,UTC+8,50.372713,103.286699,11249
"Респ Бурятия, г Кяхта",Дальневосточный,Бурятия,Кяхта,5ef858d8-f7e6-4ea9-8276-53a25672bf9f,UTC+8,50.346543,106.4533516,20013
"Респ Бурятия, г Северобайкальск",Дальневосточный,Бурятия,Северобайкальск,c4ea4370-0720-40a3-9df6-dd8ccf354d15,UTC+8,55.635614,109.3361505,23673
г Улан-Удэ,Дальневосточный,Бурятия,Улан-Удэ,9fdcc25f-a3d0-4f28-8b61-40648d099065,UTC+8,51.8335853,107.5842223,431922
"Владимирская обл, г Александров",Центральный,Владимирская,Александров,59e55956-69a2-432f-b880-74cf8ec0b9fe,UTC+3,56.391819,38.7111123,61544
г Владимир,Центральный,Владимирская,Владимир,f66a00e6-179e-4de9-8ecb-78b0277c9f10,UTC+3,56.1280804,40.4084376,348256
"Владимирская обл, г Вязники",Центральный,Владимирская,Вязники,0114e0c6-4060-4473-bc44-779e5a85e9dd,UTC+3,56.29773,42.2687398,41252
"Владимирская обл, г Гороховец",Центральный,Владимирская,Гороховец,e3bc9262-6bcf-42f8-a0bd-a8a00def58bc,UTC+3,56.2021036,42.6926111,14015
"Владимирская обл, г Гусь-Хрустальный",Центральный,Владимирская,Гусь-Хрустальный,aa4aa0d7-f97f-4974-9291-c0a530a1ccb6,UTC+3,55.6198751,40.6579929,60773
"Владимирская обл, г Камешково",Центральный,Владимирская,Камешково,13cf312e-735f-4faa-8a7d-9a2622d50438,UTC+3,56.3490152,40.9955183,13113
"Владимирская обл, Александровский р-н, г Карабаново",Центральный,Владимирская,Карабаново,4f178a20-53a7-4032-b62b-7337315e0fc1,UTC+3,56.3131822,38.7034257,14868
"Владимирская обл, г Киржач",Центральный,Владимирская,Киржач,115db243-1238-412f-a2a1-6d53ef30ba9e,UTC+3,56.1486863,38.8635701,30044
"Владимирская обл, г Ковров",Центральный,Владимирская,Ковров,0b4978e2-e64c-4db1-b84d-93cf34bdb04b,UTC+3,56.3554349,41.3170576,145492
"Владимирская обл, г Кольчугино",Центральный,Владимирская,Кольчугино,8f9faad4-ff93-471d-b0c0-c8e5c0162dee,UTC+3,56.3327254,39.391336,45804
"Владимирская обл, Петушинский р-н, г Костерево",Центральный,Владимирская,Костерево,50b6831d-52f4-4905-93d7-8e42812cd947,UTC+3,55.9337222,39.6247398,9136
"Владимирская обл, Гусь-Хрустальный р-н, г Курлово",Центральный,Владимирская,Курлово,4f68f8c7-bf54-48a6-8165-0313d75a83c2,UTC+3,55.452698,40.6124108,6791
"Владимирская обл, Собинский р-н, г Лакинск",Центральный,Владимирская,Лакинск,67eb946d-db25-4ad2-9852-6436ed35b39e,UTC+3,56.0180587,39.956551,15707
"Владимирская обл, г Меленки",Центральный,Владимирская,Меленки,710f2d29-5c22-4d4d-be27-04713381c676,UTC+3,55.3387515,41.6340046,15208
"Владимирская обл, г Муром",Центральный,Владимирская,Муром,0d7d5d87-f0a6-428f-b655-d3be106c64a2,UTC+3,55.5630311,42.0231362,116078
"Владимирская обл, г Петушки",Центральный,Владимирская,Петушки,b7ba6bfc-4b0c-4b05-88bd-267d50b36850,UTC+3,55.9298134,39.4508075,15167
"Владимирская обл, Петушинский р-н, г Покров",Центральный,Владимирская,Покров,f1c2252b-c3da-43f4-86ea-5f05812e99d5,UTC+3,55.9166398,39.1734526,17762
"Владимирская обл, г Радужный",Центральный,Владимирская,Радужный,c0ac6992-e48e-4648-b176-f56e7bcda57b,UTC+3,55.9960277,40.3321855,18212
"Владимирская обл, г Собинка",Центральный,Владимирская,Собинка,d33946c4-bda9-43a5-b5c4-1157ae28149a,UTC+3,55.9939169,40.0179653,19482
"Владимирская обл, Александровский р-н, г Струнино",Центральный,Владимирская,Струнино,9f490940-079f-4bf9-9931-48952c1bea4f,UTC+3,56.3749967,38.5839667,14372
"Владимирская обл, г Судогда",Центральный,Владимирская,Судогда,469a6b26-cb42-4db7-8fe7-758b946956c4,UTC+3,55.9498056,40.8562939,11848
"Владимирская обл, г Суздаль",Центральный,Владимирская,Суздаль,f347f78e-f991-4b0b-bfbd-600ac927b009,UTC+3,56.4274441,40.4525692,10535
"Владимирская обл, г Юрьев-Польский",Центральный,Владимирская,Юрьев-Польский,4859c31b-fba4-460a-9543-befc791da8a9,UTC+3,56.4937757,39.6680539,19588
г Волгоград,Южный,Волгоградская,Волгоград,a52b7389-0cfe-46fb-ae15-298652a64cf8,UTC+3,48.7070042,44.5170339,1021244
"Волгоградская обл, г Волжский",Южный,Волгоградская,Волжский,bc5ed788-84c8-493e-9598-7a15a9f1e4c1,UTC+3,48.7978209,44.7462538,314436
"Волгоградская обл, г Дубовка",Южный,Волгоградская,Дубовка,66a2c07f-45b1-47d2-ab51-fa16288d07a6,UTC+3,49.0554742,44.8270085,14345
"Волгоградская обл, г Жирновск",Южный,Волгоградская,Жирновск,1f9bda6f-45a5-4bf5-b1d8-434d763ea834,UTC+3,50.9768814,44.7858202,16890
"Волгоградская обл, г Калач-на-Дону",Южный,Волгоградская,Калач-на-Дону,acc6220a-f624-4880-84d8-670319b0e25d,UTC+3,48.6889024,43.5306303,26892
"Волгоградская обл, г Камышин",Южный,Волгоградская,Камышин,0f9fb687-8d03-41a2-968f-033a2ba44f2f,UTC+3,50.0651529,45.3844202,119924
"Волгоградская обл, г Котельниково",Южный,Волгоградская,Котельниково,ec52e094-acd0-49ab-bc84-9ce0aa80c7c0,UTC+3,47.6310259,43.1330872,20441
"Волгоградская обл, г Котово",Южный,Волгоградская,Котово,6a9dded3-afcf-46ba-9881-5048c3bec5a3,UTC+3,50.3205766,44.8030699,24104
"Волгоградская обл, Среднеахтубинский р-н, г Краснослободск",Южный,Волгоградская,Краснослободск,68e32d89-51bb-4030-b697-ceca53b9e740,UTC+3,48.7068721,44.5630857,16007
"Волгоградская обл, г Ленинск",Южный,Волгоградская,Ленинск,bee1ee84-fdcf-45b2-8c87-7b015efc4332,UTC+3,48.6936061,45.1992692,15527
"Волгоградская обл, г Михайловка",Южный,Волгоградская,Михайловка,f02dbf6d-57ad-49bc-8011-603bf7126bb5,UTC+3,50.0708719,43.2401512,59153
"Волгоградская обл, г Николаевск",Южный,Волгоградская,Николаевск,8680a7a3-5c93-4c0d-ae64-d828306b2310,UTC+3,50.0165306,45.4731658,15081
"Волгоградская обл, г Новоаннинский",Южный,Волгоградская,Новоаннинский,254f7c3a-fc21-4405-8779-eee0a7a5c63f,UTC+3,50.5296067,42.6666439,17911
"Волгоградская обл, г Палласовка",Южный,Волгоградская,Палласовка,e6891ad3-e99a-48fa-93e5-805da20e849c,UTC+3,50.0500944,46.8804277,15984
"Волгоградская обл, Камышинский р-н, г Петров Вал",Южный,Волгоградская,Петров Вал,02324444-36d6-4af8-a9af-15b77576adea,UTC+3,50.1380557,45.20914,13264
"Волгоградская обл, г Серафимович",Южный,Волгоградская,Серафимович,fb921dd7-0b8e-42a6-a5bb-3d1387f090d0,UTC+3,49.5663183,42.7360402,9368
"Волгоградская обл, г Суровикино",Южный,Волгоградская,Суровикино,b5bab4ba-e94f-4178-b6f7-67e01c89bec2,UTC+3,48.618917,42.8541163,20527
"Волгоградская обл, г Урюпинск",Южный,Волгоградская,Урюпинск,2e5879fc-35c2-4354-816b-f1fce74ece87,UTC+3,50.7903789,42.0288513,41594
"Волгоградская обл, г Фролово",Южный,Волгоградская,Фролово,57e3991f-e685-4ba2-9cef-9988e6fa5862,UTC+3,49.7649148,43.6648641,39489
"Вологодская обл, г Бабаево",Северо-Западный,Вологодская,Бабаево,e61e9415-3cdc-4e44-9cdf-a98662bab04f,UTC+3,59.3892583,35.9377058,12074
"Вологодская обл, г Белозерск",Северо-Западный,Вологодская,Белозерск,9444e5a5-b164-42b8-b4ff-e3b4c157fc54,UTC+3,60.0308381,37.7890586,9614
"Вологодская обл, г Великий Устюг",Северо-Западный,Вологодская,Великий Устюг,9db452cb-452a-4373-9610-a265b3b55653,UTC+3,60.7603913,46.3054414,31664
г Вологда,Северо-Западный,Вологодская,Вологда,023484a5-f98d-4849-82e1-b7e0444b54ef,UTC+3,59.2483905,39.8355662,301642
"Вологодская обл, г Вытегра",Северо-Западный,Вологодская,Вытегра,f66fbc22-445e-42ab-8f53-3de507d877c9,UTC+3,61.0063465,36.4495137,10490
"Вологодская обл, г Грязовец",Северо-Западный,Вологодская,Грязовец,aeee36bc-969a-4cc6-9fb3-5e237e776068,UTC+3,58.8757553,40.2485362,15528
"Вологодская обл, Сокольский р-н, г Кадников",Северо-Западный,Вологодская,Кадников,eb52b8bf-131d-4250-9a09-c0d41a7d42ee,UTC+3,59.5037764,40.3441148,4797
"Вологодская обл, г Кириллов",Северо-Западный,Вологодская,Кириллов,bfe722ba-8bfd-4dbd-acc5-73da667a0f95,UTC+3,59.8591523,38.3748782,7735
"Вологодская обл, Великоустюгский р-н, г Красавино",Северо-Западный,Вологодская,Красавино,78a546b6-196d-407f-a082-e7e85ff4acad,UTC+3,60.9612823,46.4814116,7003
"Вологодская обл, г Никольск",Северо-Западный,Вологодская,Никольск,9b602724-8b73-4979-ae01-3ba8a22c93f2,UTC+3,59.5351837,45.4576137,8515
"Вологодская обл, г Сокол",Северо-Западный,Вологодская,Сокол,500b9e8f-79cc-4c35-b497-110f550d6615,UTC+3,59.4758605,40.1114187,38454
"Вологодская обл, г Тотьма",Северо-Западный,Вологодская,Тотьма,3a0d6df8-c23f-4435-83bb-9f97dd2e3343,UTC+3,59.9734998,42.7589506,9784
"Вологодская обл, г Устюжна",Северо-Западный,Вологодская,Устюжна,3c2ceeea-04a9-4171-b4dd-341620290258,UTC+3,58.8383117,36.4425478,9478
"Вологодская обл, г Харовск",Северо-Западный,Вологодская,Харовск,e5e0513c-fc84-4373-b3ee-05f8382f8110,UTC+3,59.9479423,40.2000298,10078
"Вологодская обл, г Череповец",Северо-Западный,Вологодская,Череповец,b4c30848-5181-44b4-88fa-456e1c4aeb0f,UTC+3,59.1269212,37.9090497,312311
"Воронежская обл, г Бобров",Центральный,Воронежская,Бобров,0a50bda2-e801-4e11-bcc0-8c6469d46a5d,UTC+3,51.0901649,40.0318256,19738
"Воронежская обл, г Богучар",Центральный,Воронежская,Богучар,33b88f52-819d-4ba5-aa70-3fe4ccfd33d6,UTC+3,49.9352454,40.5590801,11811
"Воронежская обл, г Борисоглебск",Центральный,Воронежская,Борисоглебск,e5c49f70-5235-49ef-a16b-816114b36566,UTC+3,51.3655754,42.1008334,65585
"Воронежская обл, г Бутурлиновка",Центральный,Воронежская,Бутурлиновка,b3c350d7-8c81-4016-b198-f197536e8321,UTC+3,50.8311818,40.5976923,27208
г Воронеж,Центральный,Воронежская,Воронеж,5bf5ddff-6353-4a3d-80c4-6fb27f00c6c1,UTC+3,51.6593332,39.1969229,889680
"Воронежская обл, г Калач",Центральный,Воронежская,Калач,57a863b5-02a7-482a-8320-a3d165c4bfd0,UTC+3,50.4242134,41.0162014,20046
"Воронежская обл, г Лиски",Центральный,Воронежская,Лиски,e0a82358-88c2-44ab-b402-c450e1aa52a8,UTC+3,50.9945626,39.5184909,55864
"Воронежская обл, г Нововоронеж",Центральный,Воронежская,Нововоронеж,c7cdacb9-6a1e-4402-8bc6-6ec36a42d05c,UTC+3,51.3091524,39.2162843,32635
"Воронежская обл, г Новохоперск",Центральный,Воронежская,Новохоперск,43fe280f-6fa3-4a06-8daf-94586e2bea44,UTC+3,51.0952211,41.6173404,6849
"Воронежская обл, г Острогожск",Центральный,Воронежская,Острогожск,8434550d-dd9b-4bc7-8e5b-d43a991753e2,UTC+3,50.8677905,39.0407746,33842
"Воронежская обл, г Павловск",Центральный,Воронежская,Павловск,f4a89d85-b770-4d58-b205-31165a9958b8,UTC+3,50.453455,40.136874,25126
"Воронежская обл, г Поворино",Центральный,Воронежская,Поворино,9cb55edf-0fb2-46af-8f00-02b15c2f1644,UTC+3,51.1954419,42.2472726,17692
"Воронежская обл, г Россошь",Центральный,Воронежская,Россошь,1ed74fcf-2dd0-460a-99b9-029ca382517d,UTC+3,50.1701949,39.6226965,62865
"Воронежская обл, г Семилуки",Центральный,Воронежская,Семилуки,15d507b5-f67e-4ee6-9f25-683562699fac,UTC+3,51.6951644,39.0190454,26025
"Воронежская обл, г Эртиль",Центральный,Воронежская,Эртиль,fdbadb36-e4f6-4843-8f1f-80bd4fb4381e,UTC+3,51.830932,40.8074182,11387
"Респ Дагестан, г Буйнакск",Северо-Кавказский,Дагестан,Буйнакск,fab58303-fb09-422e-aeb7-6fdb5dfe7941,UTC+3,42.8214424,47.1165263,65735
"Респ Дагестан, г Дагестанские Огни",Северо-Кавказский,Дагестан,Дагестанские Огни,8b4a997b-1e70-402a-a56a-e93c81d0ff20,UTC+3,42.1152296,48.1939354,30671
"Респ Дагестан, г Дербент",Северо-Кавказский,Дагестан,Дербент,1bde5cf4-7943-4b17-9718-2c1d96742be5,UTC+3,42.058966,48.2907452,119961
"Респ Дагестан, г Избербаш",Северо-Кавказский,Дагестан,Избербаш,bf14786f-6c0e-4369-8907-57f9d3fd93ac,UTC+3,42.5650962,47.8710051,56301
"Респ Дагестан, г Каспийск",Северо-Кавказский,Дагестан,Каспийск,a8695cce-c623-4451-bb47-2d69ab22092a,UTC+3,42.8916007,47.6367066,103914
"Респ Дагестан, г Кизилюрт",Северо-Кавказский,Дагестан,Кизилюрт,efc8a6e2-ffab-4d69-a35b-019bfe89745e,UTC+3,43.203825,46.8729636,36187
"Респ Дагестан, г Кизляр",Северо-Кавказский,Дагестан,Кизляр,e18e67f7-e62a-4abe-853c-ffb8e5ab57e1,UTC+3,43.8484083,46.7233699,49169
г Махачкала,Северо-Кавказский,Дагестан,Махачкала,727cdf1e-1b70-4e07-8995-9bf7ca9abefb,UTC+3,42.9849159,47.5047181,577990
"Респ Дагестан, г Хасавюрт",Северо-Кавказский,Дагестан,Хасавюрт,b10ca6a7-e9c0-4382-b939-4787aaf43a58,UTC+3,43.2504665,46.5851292,133929
"Респ Дагестан, г Южно-Сухокумск",Северо-Кавказский,Дагестан,Южно-Сухокумск,733221a2-f789-4dda-a3f4-e41c88b6cfbd,UTC+3,44.6602467,45.6499523,10048
г Биробиджан,Дальневосточный,Еврейская,Биробиджан,5d133391-46ee-496b-83a6-efeeaa903643,UTC+10,48.7946446,132.9217207,75419
"Еврейская Аобл, г Облучье",Дальневосточный,Еврейская,Облучье,b60c1e9f-9355-47ef-b5a3-82906d074bd4,UTC+10,49.0189345,131.0540102,9379
"Забайкальский край, г Балей",Дальневосточный,Забайкальский,Балей,29a51a64-5ca3-4cc6-87ff-9cdfcc17642e,UTC+9,51.5823759,116.6379549,12536
"Забайкальский край, г Борзя",Дальневосточный,Забайкальский,Борзя,d4b135b9-4504-4bae-8585-da058d350f58,UTC+9,50.3876058,116.5234779,31376
"Забайкальский край, г Краснокаменск",Дальневосточный,Забайкальский,Краснокаменск,3c9d5e9e-2922-4e9e-9e49-dbe6faf01fb2,UTC+9,50.0929703,118.0323936,55668
"Забайкальский край, г Могоча",Дальневосточный,Забайкальский,Могоча,29eb6b99-27ad-493c-9fd1-a83fe8acdf24,UTC+9,53.7361398,119.7660867,13228
"Забайкальский край, г Нерчинск",Дальневосточный,Забайкальский,Нерчинск,ba325548-ac92-4a21-904b-bb535e5fe249,UTC+9,51.9594977,116.5852383,14976
"Забайкальский край, г Петровск-Забайкальский",Дальневосточный,Забайкальский,Петровск-Забайкальский,b26bb2c1-f79b-4c97-9d2d-e73790cfe622,UTC+9,51.2748592,108.846681,18555
"Забайкальский край, г Сретенск",Дальневосточный,Забайкальский,Сретенск,f9dd7993-4953-4980-bbcc-2666b94b2a06,UTC+9,52.2461454,117.7117842,6850
"Забайкальский край, г Хилок",Дальневосточный,Забайкальский,Хилок,a4b18a69-c5df-4022-ba9b-a29f99acfa42,UTC+9,51.3634856,110.4590898,11530
г Чита,Дальневосточный,Забайкальский,Чита,2d9abaa6-85a6-4f1f-a1bd-14b76ec17d9c,UTC+9,52.0340142,113.4994,323964
"Забайкальский край, г Шилка",Дальневосточный,Забайкальский,Шилка,69efa85f-c9d7-44bb-bcda-95205cd1a647,UTC+9,51.8497035,116.0334461,13947
"Ивановская обл, г Вичуга",Центральный,Ивановская,Вичуга,3d518b4e-86b2-48d5-bcf3-48f107165918,UTC+3,57.2044698,41.9132201,37609
"Ивановская обл, г Гаврилов Посад",Центральный,Ивановская,Гаврилов Посад,3f81927e-bc4b-45c7-a962-b80c0e216115,UTC+3,56.5586946,40.1228906,6434
"Ивановская обл, г Заволжск",Центральный,Ивановская,Заволжск,3bf1c329-e556-4d56-82d0-3b1b42b298da,UTC+3,57.4918141,42.1375625,12045
г Иваново,Центральный,Ивановская,Иваново,40c6863e-2a5f-4033-a377-3416533948bd,UTC+3,56.9993792,40.9728272,409277
"Ивановская обл, г Кинешма",Центральный,Ивановская,Кинешма,df284e77-a45c-411d-8901-94c91f4a92e5,UTC+3,57.4425463,42.168914,88113
"Ивановская обл, г Комсомольск",Центральный,Ивановская,Комсомольск,d812b7bf-68de-4e11-95d6-39f7c8ec111e,UTC+3,57.0273052,40.3776851,8693
"Ивановская обл, г Кохма",Центральный,Ивановская,Кохма,022e301b-514f-477f-9d1e-f60430c40429,UTC+3,56.9324606,41.0931657,29408
"Ивановская обл, Кинешемский р-н, г Наволоки",Центральный,Ивановская,Наволоки,36d31ef0-a525-4be4-a6e9-28ced781dfae,UTC+3,57.4679066,41.9608002,10207
"Ивановская обл, Приволжский р-н, г Плес",Центральный,Ивановская,Плес,8bb29a7a-de9c-4c21-ad15-3af39f0a41fa,UTC+3,57.4606031,41.5122672,2341
"Ивановская обл, г Приволжск",Центральный,Ивановская,Приволжск,43706edd-5cf4-4400-8e60-03ea3660c25f,UTC+3,57.3805743,41.2808565,16749
"Ивановская обл, г Пучеж",Центральный,Ивановская,Пучеж,a85feb12-89e9-441d-956a-8510493cdc8d,UTC+3,56.9820688,43.1683321,8583
"Ивановская обл, г Родники",Центральный,Ивановская,Родники,90328f6e-d961-48ba-ab03-366d93df3c07,UTC+3,57.1025975,41.7298834,26318
"Ивановская обл, г Тейково",Центральный,Ивановская,Тейково,09a16212-dcce-4f9a-be1a-515911beaba3,UTC+3,56.8542719,40.5353874,34993
"Ивановская обл, г Фурманов",Центральный,Ивановская,Фурманов,9d56ad01-abe9-4f14-89e5-9af4544b94b2,UTC+3,57.2539276,41.1054432,36149
"Ивановская обл, г Шуя",Центральный,Ивановская,Шуя,a6c7e92c-79cf-4b47-beb6-40192295c559,UTC+3,56.8560234,41.3800939,58528
"Ивановская обл, г Южа",Центральный,Ивановская,Южа,16c1333c-8766-4135-a29a-e08f959e60bc,UTC+3,56.5926877,42.0458099,14170
"Ивановская обл, г Юрьевец",Центральный,Ивановская,Юрьевец,be9d618e-8dc4-498f-aed6-03ce38f82683,UTC+3,57.3177781,43.1110401,10205
"Респ Ингушетия, г Карабулак",Северо-Кавказский,Ингушетия,Карабулак,2c33c72e-642b-4a7e-afe5-982f5adf6b17,UTC+3,43.3055248,44.9094582,31081
г Магас,Северо-Кавказский,Ингушетия,Магас,c801edb4-aba2-4e1d-9ab2-69fcbf0aeb9c,UTC+3,43.1688611,44.8131207,2505
"Респ Ингушетия, г Малгобек",Северо-Кавказский,Ингушетия,Малгобек,5c318987-0763-4822-9c57-0d55e40fb9d7,UTC+3,43.5096646,44.5901963,31076
"Респ Ингушетия, г Назрань",Северо-Кавказский,Ингушетия,Назрань,815566a1-04ea-44a9-b34b-25b70ac9aa9a,UTC+3,43.2257841,44.7645779,93357
"Респ Ингушетия, г Сунжа",Северо-Кавказский,Ингушетия,Сунжа,0effcc07-1b12-4570-9951-23523c06c858,UTC+3,43.3204196,45.0476331,64493
"Иркутская обл, Нижнеудинский р-н, г Алзамай",Сибирский,Иркутская,Алзамай,a7812582-bd5d-4d13-b284-d2b052265e9d,UTC+8,55.5551233,98.6643699,6751
"Иркутская обл, г Ангарск",Сибирский,Иркутская,Ангарск,82b6b7c8-82a4-44b2-8bc7-691373706b89,UTC+8,52.544879,103.888543,233765
"Иркутская обл, Слюдянский р-н, г Байкальск",Сибирский,Иркутская,Байкальск,cd4477e8-3335-442a-a0a4-9429a52f5c52,UTC+8,51.5230393,104.1487532,13589
"Иркутская обл, Тайшетский р-н, г Бирюсинск",Сибирский,Иркутская,Бирюсинск,5b646190-2037-409f-bf0f-6fb8194a0581,UTC+8,55.9609167,97.8205348,8981
"Иркутская обл, г Бодайбо",Сибирский,Иркутская,Бодайбо,8ace6ae4-7a35-494a-bfbd-9a743a929c39,UTC+8,57.8468636,114.1866287,15331
"Иркутская обл, г Братск",Сибирский,Иркутская,Братск,bdf6b629-b33e-4cfa-b4b2-7f693e1d821c,UTC+8,56.1513108,101.6340035,246348
"Иркутская обл, Братский р-н, г Вихоревка",Сибирский,Иркутская,Вихоревка,04bc8726-0523-4aeb-8450-fe07ff425372,UTC+8,56.1208145,101.1702926,22528
"Иркутская обл, г Железногорск-Илимский",Сибирский,Иркутская,Железногорск-Илимский,31ba5d12-ae5b-4cc0-8892-2a504423ee61,UTC+8,56.5847888,104.114275,26134
"Иркутская обл, г Зима",Сибирский,Иркутская,Зима,7c3452ac-3953-4b78-a80c-64ec839620a6,UTC+8,53.920693,102.0491772,32522
г Иркутск,Сибирский,Иркутская,Иркутск,8eeed222-72e7-47c3-ab3a-9a553c31cf72,UTC+8,52.2864036,104.2807466,587225
"Иркутская обл, г Киренск",Сибирский,Иркутская,Киренск,1ea67233-631c-49bf-8d7c-1a17fc785e97,UTC+8,57.7756595,108.1109412,12652
"Иркутская обл, г Нижнеудинск",Сибирский,Иркутская,Нижнеудинск,5d596a21-da89-4820-91ef-6ce3940a0c9f,UTC+8,54.8968931,99.0314056,37056
"Иркутская обл, г Саянск",Сибирский,Иркутская,Саянск,c21b5e04-ce0f-4f98-b0ac-0ceabc531212,UTC+8,54.1107238,102.18015,40786
"Иркутская обл, г Свирск",Сибирский,Иркутская,Свирск,17e498bd-5f9e-4221-8998-5fa24a35ed2e,UTC+8,53.0842668,103.3364093,13649
"Иркутская обл, г Слюдянка",Сибирский,Иркутская,Слюдянка,31802bef-b635-49b2-866d-1d1006e3081e,UTC+8,51.6563983,103.7187545,18542
"Иркутская обл, г Тайшет",Сибирский,Иркутская,Тайшет,945ac8e1-b529-4cec-afda-f92c6a6b0f70,UTC+8,55.9405334,98.0030145,35481
"Иркутская обл, г Тулун",Сибирский,Иркутская,Тулун,869c2c69-e8cd-43ae-9596-e0be50c0fcfe,UTC+8,54.557162,100.5780603,44603
"Иркутская обл, г Усолье-Сибирское",Сибирский,Иркутская,Усолье-Сибирское,ac680034-f7da-4bd8-8374-a5c97aa09516,UTC+8,52.7565808,103.6388109,83364
"Иркутская обл, г Усть-Илимск",Сибирский,Иркутская,Усть-Илимск,78d11295-77b5-4ac4-b128-582e2989c0a5,UTC+8,57.9430504,102.7415734,86591
"Иркутская обл, г Усть-Кут",Сибирский,Иркутская,Усть-Кут,cfb0a55a-3314-42bf-b3d8-5ed5368abdd6,UTC+8,56.7928178,105.7757343,45061
"Иркутская обл, г Черемхово",Сибирский,Иркутская,Черемхово,f05b68c4-f1c7-4c3d-b557-f1f44a57b85f,UTC+8,53.1369095,103.0901268,52650
"Иркутская обл, г Шелехов",Сибирский,Иркутская,Шелехов,c727ac3a-e05c-4b81-b8e1-9b1003c28595,UTC+8,52.2102538,104.0973294,47960
"Респ Кабардино-Балкарская, г Баксан",Северо-Кавказский,Кабардино-Балкарская,Баксан,67851dfd-e142-451a-b6b1-ea5e9bc7f0c1,UTC+3,43.6819137,43.5345036,36857
"Респ Кабардино-Балкарская, г Майский",Северо-Кавказский,Кабардино-Балкарская,Майский,e9f48c52-6cc4-47d9-ba6d-e7b12e8e0871,UTC+3,43.6281516,44.0517314,26755
г Нальчик,Северо-Кавказский,Кабардино-Балкарская,Нальчик,913a82e3-b671-43d5-97b4-8a08b8ee2d28,UTC+3,43.4845464,43.60713,240095
"Респ Кабардино-Балкарская, г Нарткала",Северо-Кавказский,Кабардино-Балкарская,Нарткала,cb0f531d-4831-41c0-a859-3ad1f2e0f70b,UTC+3,43.5578075,43.8575925,31679
"Респ Кабардино-Балкарская, г Прохладный",Северо-Кавказский,Кабардино-Балкарская,Прохладный,22973a33-7a1c-449d-9535-def88bd91ed3,UTC+3,43.7589602,44.0102409,59595
"Респ Кабардино-Балкарская, г Терек",Северо-Кавказский,Кабардино-Балкарская,Терек,9886a048-8715-4526-80b1-2f0fd8dd7bdf,UTC+3,43.4839358,44.1402161,19170
"Респ Кабардино-Балкарская, г Тырныауз",Северо-Кавказский,Кабардино-Балкарская,Тырныауз,e0ee885d-786e-457e-9568-2def04ee83b0,UTC+3,43.3981585,42.9213582,21000
"Респ Кабардино-Балкарская, г Чегем",Северо-Кавказский,Кабардино-Балкарская,Чегем,17bfd906-04ef-45f2-abbb-fcf801d0ba84,UTC+3,43.5671525,43.5865792,17988
"Калининградская обл, г Багратионовск",Северо-Западный,Калининградская,Багратионовск,427dc561-3277-43bd-a310-7c1953a3c8bd,UTC+2,54.3866518,20.6418091,6399
"Калининградская обл, г Балтийск",Северо-Западный,Калининградская,Балтийск,97323948-09db-411c-8e9a-43ad2ec25687,UTC+2,54.6513372,19.9140572,32670
"Калининградская обл, г Гвардейск",Северо-Западный,Калининградская,Гвардейск,8f9e9cc0-711f-470a-9fff-2a65c00c8439,UTC+2,54.6588378,21.0501388,13888
"Калининградская обл, г Гурьевск",Северо-Западный,Калининградская,Гурьевск,27bc7f09-4593-4972-950b-231f2a49d44b,UTC+2,54.770638,20.6039767,12433
"Калининградская обл, г Гусев",Северо-Западный,Калининградская,Гусев,66cb21da-0212-4d22-a2a3-f1badcd3a9d4,UTC+2,54.5915455,22.1942445,28260
"Калининградская обл, г Зеленоградск",Северо-Западный,Калининградская,Зеленоградск,448d8a42-8ebf-4ca5-a9f2-98efb532630f,UTC+2,54.9600185,20.4753652,13015
г Калининград,Северо-Западный,Калининградская,Калининград,df679694-d505-4dd3-b514-4ba48c8a97d8,UTC+2,54.7074702,20.5073241,431491
"Калининградская обл, г Краснознаменск",Северо-Западный,Калининградская,Краснознаменск,40c2a58b-8f84-4b30-8a22-038efe4f059a,UTC+2,54.9453423,22.4928745,3522
"Калининградская обл, г Ладушкин",Северо-Западный,Калининградская,Ладушкин,04950f38-5c4c-4989-8b7a-6224795a2b59,UTC+2,54.5692156,20.1690153,3788
"Калининградская обл, г Мамоново",Северо-Западный,Калининградская,Мамоново,2942ef2d-01b0-4137-8f46-5228e9eedd7f,UTC+2,54.4646036,19.9453482,7757
"Калининградская обл, г Неман",Северо-Западный,Калининградская,Неман,180fcdbd-95b4-41f5-90f5-cbe9b9c83da7,UTC+2,55.0316524,22.0324064,11794
"Калининградская обл, г Нестеров",Северо-Западный,Калининградская,Нестеров,4fb71afc-f221-454e-9edf-d6fd9ee07418,UTC+2,54.6313814,22.5713736,4584
"Калининградская обл, г Озерск",Северо-Западный,Калининградская,Озерск,19620317-39e8-4a09-af7e-67b136ef61fe,UTC+2,54.4084705,22.0134438,4740
"Калининградская обл, г Пионерский",Северо-Западный,Калининградская,Пионерский,9fee1c1b-9d14-42ea-8ff9-2e903501d43d,UTC+2,54.9516574,20.2277424,11017
"Калининградская обл, г Полесск",Северо-Западный,Калининградская,Полесск,27fd5628-fbd7-4641-abed-b213af6029b8,UTC+2,54.8625126,21.0998067,7580
"Калининградская обл, г Правдинск",Северо-Западный,Калининградская,Правдинск,2b3f4c49-0e5b-44c8-bf56-a335eb551c23,UTC+2,54.4430986,21.0085269,4323
"Калининградская обл, Балтийский р-н, г Приморск",Северо-Западный,Калининградская,Приморск,5f19f5f2-55b1-4796-9610-8a73eeefcaf1,UTC+2,54.7311437,19.9981926,1956
"Калининградская обл, г Светлогорск",Северо-Западный,Калининградская,Светлогорск,19436029-357a-435b-8156-b01fba4ea8a5,UTC+2,54.9439286,20.1514295,10775
"Калининградская обл, г Светлый",Северо-Западный,Калининградская,Светлый,6d379259-b8d5-4cca-9412-1ded0849fd1a,UTC+2,54.6772897,20.1357595,21380
"Калининградская обл, г Славск",Северо-Западный,Калининградская,Славск,f731c104-431c-494c-b4e8-f97ccaaf71b9,UTC+2,55.0449714,21.6742367,4614
"Калининградская обл, г Советск",Северо-Западный,Калининградская,Советск,e401208f-3469-403f-910b-bba057cf70b2,UTC+2,55.0809336,21.8886106,41709
"Калининградская обл, г Черняховск",Северо-Западный,Калининградская,Черняховск,acde8f61-fd56-4cec-a4df-1f033e2a63ee,UTC+2,54.6244751,21.7969062,40464
"Респ Калмыкия, г Городовиковск",Южный,Калмыкия,Городовиковск,ae5ed160-39e8-46b7-ac27-d858e7032877,UTC+3,46.0875083,41.935537,9565
"Респ Калмыкия, г Лагань",Южный,Калмыкия,Лагань,808f71cf-e9f9-4fe8-ab93-2b6326ebbd8e,UTC+3,45.3930912,47.3432602,14323
г Элиста,Южный,Калмыкия,Элиста,d5bd18b9-22c1-48e2-9b4a-3b7a4c89a3cb,UTC+3,46.3083344,44.2702088,103728
"Калужская обл, Боровский р-н, г Балабаново",Центральный,Калужская,Балабаново,ef65fa9c-6516-4175-a00a-6410a4a6f2d6,UTC+3,55.1773714,36.6566951,26337
"Калужская обл, Жуковский р-н, г Белоусово",Центральный,Калужская,Белоусово,4601e932-0ca3-474f-a8a6-e67cc034b346,UTC+3,55.0956803,36.677629,8432
"Калужская обл, г Боровск",Центральный,Калужская,Боровск,db14bfff-fea7-469e-82f4-ccf4209d6753,UTC+3,55.2130096,36.4926251,12283
"Калужская обл, Боровский р-н, г Ермолино",Центральный,Калужская,Ермолино,0c66ce29-8464-40ef-a11d-e8e6df7475fd,UTC+3,55.1971758,36.5952722,10409
"Калужская обл, г Жиздра",Центральный,Калужская,Жиздра,2073f6df-cf12-455f-818d-cedea8f783fa,UTC+3,53.7521926,34.7386592,5585
"Калужская обл, г Жуков",Центральный,Калужская,Жуков,53f014ee-1074-4f90-b948-9e5219e24b9b,UTC+3,55.0301833,36.7394903,12150
г Калуга,Центральный,Калужская,Калуга,b502ae45-897e-4b6f-9776-6ff49740b537,UTC+3,54.5059848,36.2516245,325185
"Калужская обл, г Киров",Центральный,Калужская,Киров,7c875ac0-5c75-4798-8786-564ccb5bd9f2,UTC+3,54.0790111,34.3076201,31888
"Калужская обл, г Козельск",Центральный,Калужская,Козельск,adc77035-406d-4cb4-9bcc-094c89ac67fc,UTC+3,54.0347201,35.780768,18203
"Калужская обл, г Кондрово",Центральный,Калужская,Кондрово,9ea37890-3ec5-4425-8e41-f60d1844335d,UTC+3,54.7959473,35.9274842,16672
"Калужская обл, Жуковский р-н, г Кременки",Центральный,Калужская,Кременки,73c0bcae-5da5-4796-9084-9b9e5905d501,UTC+3,54.8862447,37.1168701,11617
"Калужская обл, г Людиново",Центральный,Калужская,Людиново,e6b8a826-768f-4745-889b-e774c1520c5f,UTC+3,53.8700828,34.4385915,40550
"Калужская обл, г Малоярославец",Центральный,Калужская,Малоярославец,72cb3a9a-0180-4619-ac08-07e762e58e6f,UTC+3,55.0177123,36.4633603,30401
"Калужская обл, г Медынь",Центральный,Калужская,Медынь,df03aec4-0859-4f40-9f51-90b2ed2f83ef,UTC+3,54.9689785,35.8872168,8298
"Калужская обл, г Мещовск",Центральный,Калужская,Мещовск,9b4890ea-75d9-4464-96f1-077c8a9c7e34,UTC+3,54.3191471,35.2816918,4101
"Калужская обл, г Мосальск",Центральный,Калужская,Мосальск,4ae6d306-349e-4fb8-9ce9-7c3735d3c4e6,UTC+3,54.4824939,34.9872239,4285
"Калужская обл, г Обнинск",Центральный,Калужская,Обнинск,05a647ff-b859-4c93-8c8e-3590110a0085,UTC+3,55.0943144,36.6121639,104798
"Калужская обл, Козельский р-н, г Сосенский",Центральный,Калужская,Сосенский,44326142-0196-4cec-abcb-79853fe6cfd4,UTC+3,54.0566016,35.9621646,12394
"Калужская обл, г Спас-Деменск",Центральный,Калужская,Спас-Деменск,30745bd5-b803-4327-baf9-006f25353acc,UTC+3,54.409922,34.0189631,4904
"Калужская обл, г Сухиничи",Центральный,Калужская,Сухиничи,84778f7b-bf8c-45cc-84e1-dfd136368e6a,UTC+3,54.097296,35.3443568,16295
"Калужская обл, Тарусский р-н, г Таруса",Центральный,Калужская,Таруса,31a0a531-a20f-4ccc-a370-551cd9867b0c,UTC+3,54.7236477,37.1671,9656
"Калужская обл, г Юхнов",Центральный,Калужская,Юхнов,503b2859-0304-4e8e-b627-8f611ff27d5e,UTC+3,54.7446445,35.2424346,7056
"Камчатский край, г Вилючинск",Дальневосточный,Камчатский,Вилючинск,b75a9701-5cd4-4623-99d5-4fa7463ceb47,UTC+12,52.9302415,158.4057632,22905
"Камчатский край, г Елизово",Дальневосточный,Камчатский,Елизово,3da129ee-9b72-45ec-bef9-07b69e1eed4e,UTC+12,53.1830375,158.3883548,39548
г Петропавловск-Камчатский,Дальневосточный,Камчатский,Петропавловск-Камчатский,0b3f0723-5fe0-4c23-af44-8082166c6d2e,UTC+12,53.036908,158.6559254,179526
"Респ Карачаево-Черкесская, г Карачаевск",Северо-Кавказский,Карачаево-Черкесская,Карачаевск,cb390fbd-3149-4ac9-b9fb-6af069d51b71,UTC+3,43.7732525,41.9143472,23848
"Респ Карачаево-Черкесская, г Теберда",Северо-Кавказский,Карачаево-Черкесская,Теберда,2edbb310-a924-44a8-a6d0-c9b825214fcf,UTC+3,43.4437731,41.7415142,9097
"Респ Карачаево-Черкесская, г Усть-Джегута",Северо-Кавказский,Карачаево-Черкесская,Усть-Джегута,5de40749-195c-445b-b65a-fd1c397d1440,UTC+3,44.0838442,41.9711046,30602
г Черкесск,Северо-Кавказский,Карачаево-Черкесская,Черкесск,2a4a7c93-f3f8-4042-8cbf-e04ab64f5e08,UTC+3,44.2269425,42.0466704,121439
"Респ Карелия, г Беломорск",Северо-Западный,Карелия,Беломорск,b4bc7957-5539-4da9-ac5f-d6ee037c0d52,UTC+3,64.5378417,34.7799462,11217
"Респ Карелия, Кемский р-н, г Кемь",Северо-Западный,Карелия,Кемь,e4338e50-dae7-4bd0-8843-ca0db77140d3,UTC+3,64.9543539,34.5949263,13061
"Респ Карелия, г Кондопога",Северо-Западный,Карелия,Кондопога,ca9f6919-1174-4f35-a932-232fa02a4334,UTC+3,62.2059817,34.2682122,32978
"Респ Карелия, г Костомукша",Северо-Западный,Карелия,Костомукша,1925075b-8541-4075-97ea-edad0557626e,UTC+3,64.5889398,30.6016832,28433
"Респ Карелия, г Лахденпохья",Северо-Западный,Карелия,Лахденпохья,5b02bb69-ea4f-482d-b6c3-5bdfea5244d6,UTC+3,61.518881,30.1996116,7818
"Респ Карелия, г Медвежьегорск",Северо-Западный,Карелия,Медвежьегорск,fec511c3-62fc-4093-95bd-89f05b26afa6,UTC+3,62.9127626,34.4568489,15536
"Респ Карелия, г Олонец",Северо-Западный,Карелия,Олонец,38568ddc-20b7-409f-aa76-024b3b02c637,UTC+3,60.9794025,32.9725519,9060
г Петрозаводск,Северо-Западный,Карелия,Петрозаводск,ccc34487-8fd4-4e71-b032-f4e6c82fb354,UTC+3,61.7891264,34.3596434,263540
"Респ Карелия, г Питкяранта",Северо-Западный,Карелия,Питкяранта,284264da-5fb5-4301-b36a-1127d751329d,UTC+3,61.5757191,31.4640557,11484
"Респ Карелия, г Пудож",Северо-Западный,Карелия,Пудож,ed96ee68-5ea9-4ebd-950a-2bbbd545b78e,UTC+3,61.8058821,36.5329941,9698
"Респ Карелия, г Сегежа",Северо-Западный,Карелия,Сегежа,4eb67866-2460-40c3-b69f-80889385caa3,UTC+3,63.7437572,34.3126982,29660
"Респ Карелия, г Сортавала",Северо-Западный,Карелия,Сортавала,7fa96873-4865-4f14-99e4-78d118cdca8b,UTC+3,61.703367,30.6916998,19215
"Респ Карелия, г Суоярви",Северо-Западный,Карелия,Суоярви,8a5c4019-f746-4445-8679-cb6740633a78,UTC+3,62.0787293,32.3499386,9763
"Кемеровская область - Кузбасс, г Анжеро-Судженск",Сибирский,Кемеровская область - Кузбасс,Анжеро-Судженск,8a5314a4-903e-475c-a4db-8f03db3b793f,UTC+7,56.0786281,86.0201278,76669
"Кемеровская область - Кузбасс, г Белово",Сибирский,Кемеровская область - Кузбасс,Белово,1346744e-8a64-4712-8939-bb84a1692874,UTC+7,54.4220968,86.3037373,76752
"Кемеровская область - Кузбасс, г Березовский",Сибирский,Кемеровская область - Кузбасс,Березовский,ef6bac92-b712-42ba-942b-515b36b9a32c,UTC+7,55.6693513,86.2744459,47292
"Кемеровская область - Кузбасс, г Гурьевск",Сибирский,Кемеровская область - Кузбасс,Гурьевск,9924881d-bc20-4e72-8c2e-e4cf415c93c1,UTC+7,54.2859263,85.9475985,24816
"Кемеровская область - Кузбасс, г Калтан",Сибирский,Кемеровская область - Кузбасс,Калтан,5000e677-7d3c-4eec-b01d-f3f192abbd41,UTC+7,53.5210919,87.2771636,21893
г Кемерово,Сибирский,Кемеровская область - Кузбасс,Кемерово,94bb19a3-c1fa-410b-8651-ac1bf7c050cd,UTC+7,55.3910651,86.0467781,532884
"Кемеровская область - Кузбасс, г Киселевск",Сибирский,Кемеровская область - Кузбасс,Киселевск,36122f01-1666-42e0-9c65-937787e8ca45,UTC+7,54.0059999,86.6366116,98382
"Кемеровская область - Кузбасс, г Ленинск-Кузнецкий",Сибирский,Кемеровская область - Кузбасс,Ленинск-Кузнецкий,cf600ae8-e376-42ae-bf7c-5aa1875dcd28,UTC+7,54.6674492,86.1797324,101666
"Кемеровская область - Кузбасс, г Мариинск",Сибирский,Кемеровская область - Кузбасс,Мариинск,34a2e393-69d3-4258-8daf-a6290a14b06e,UTC+7,56.2127383,87.7454924,40522
"Кемеровская область - Кузбасс, г Междуреченск",Сибирский,Кемеровская область - Кузбасс,Междуреченск,c6a7e590-04b4-4a01-85fc-b61b63711bba,UTC+7,53.6865289,88.0702754,101995
"Кемеровская область - Кузбасс, г Мыски",Сибирский,Кемеровская область - Кузбасс,Мыски,070a8e7b-038f-48c8-9eed-16a6c03ab899,UTC+7,53.7125695,87.8055646,43029
"Кемеровская область - Кузбасс, г Новокузнецк",Сибирский,Кемеровская область - Кузбасс,Новокузнецк,b28b6f6f-1435-444e-95a6-68c499b0d27a,UTC+7,53.794315,87.2142745,547885
"Кемеровская область - Кузбасс, г Осинники",Сибирский,Кемеровская область - Кузбасс,Осинники,1efff7c4-448a-48c5-b476-c803b4d36842,UTC+7,53.5988055,87.3371272,45997
"Кемеровская область - Кузбасс, г Полысаево",Сибирский,Кемеровская область - Кузбасс,Полысаево,34ac1b24-f541-4279-abfb-466f80ed1f7b,UTC+7,54.6055,86.2809208,27624
"Кемеровская область - Кузбасс, г Прокопьевск",Сибирский,Кемеровская область - Кузбасс,Прокопьевск,2d8b9d01-1c4f-4987-8a0b-1eb5080c1f38,UTC+7,53.8604265,86.7183577,210150
"Кемеровская область - Кузбасс, Гурьевский р-н, г Салаир",Сибирский,Кемеровская область - Кузбасс,Салаир,e7459805-4536-4037-9113-4b9b53893807,UTC+7,54.2351735,85.8030733,8263
"Кемеровская область - Кузбасс, г Тайга",Сибирский,Кемеровская область - Кузбасс,Тайга,4da6f430-f531-42f5-9176-1f6cf7ba6367,UTC+7,56.0622131,85.6207182,25330
"Кемеровская область - Кузбасс, г Таштагол",Сибирский,Кемеровская область - Кузбасс,Таштагол,6be8ac27-9aa0-4784-ba97-a15f066995d9,UTC+7,52.759313,87.8476546,23114
"Кемеровская область - Кузбасс, г Топки",Сибирский,Кемеровская область - Кузбасс,Топки,5a6d8be0-aa32-4344-9a4d-89fdb4c94ae8,UTC+7,55.2764707,85.6152619,28642
"Кемеровская область - Кузбасс, г Юрга",Сибирский,Кемеровская область - Кузбасс,Юрга,988289f5-d6d0-40d5-a483-55983e11c033,UTC+7,55.7202694,84.8886399,81536
"Кировская обл, г Белая Холуница",Приволжский,Кировская,Белая Холуница,49e2b1b5-771f-4dfd-9428-e74cd055d113,UTC+3,58.8415239,50.8460699,11232
"Кировская обл, г Вятские Поляны",Приволжский,Кировская,Вятские Поляны,7ad714c1-1136-4c39-84c1-17e15dbc5aab,UTC+3,56.2284817,51.0614855,35159
"Кировская обл, г Зуевка",Приволжский,Кировская,Зуевка,fe3dfa87-0363-4fbf-9a2c-dcfb237f6943,UTC+3,58.4032152,51.1331606,11198
г Киров,Приволжский,Кировская,Киров,452a2ddf-88a1-4e35-8d8d-8635493768d4,UTC+3,58.6035264,49.6679304,473668
"Кировская обл, г Кирово-Чепецк",Приволжский,Кировская,Кирово-Чепецк,3cdc251a-a649-4063-8c51-00ea2f676a95,UTC+3,58.5559424,50.0316848,80920
"Кировская обл, г Кирс",Приволжский,Кировская,Кирс,31ed73ca-6927-4243-9618-36de284ab038,UTC+3,59.340056,52.2414437,10420
"Кировская обл, г Котельнич",Приволжский,Кировская,Котельнич,49846fff-046e-4cee-944b-137cb833d67f,UTC+3,58.3034832,48.3475597,24979
"Кировская обл, г Луза",Приволжский,Кировская,Луза,9e22dc47-e0df-407b-8448-39ca682e3fd6,UTC+3,60.6290609,47.2612445,11262
"Кировская обл, г Малмыж",Приволжский,Кировская,Малмыж,2193594d-ddaf-42b6-9dfe-95cda00ba520,UTC+3,56.5243844,50.6782739,8265
"Кировская обл, г Мураши",Приволжский,Кировская,Мураши,20b2bc28-9404-4c1d-9e50-783338c1ea3c,UTC+3,59.3955383,48.9638417,6752
"Кировская обл, г Нолинск",Приволжский,Кировская,Нолинск,03e15a08-649a-44f9-93fb-0be35ce2fb5f,UTC+3,57.5597284,49.93575,9556
"Кировская обл, г Омутнинск",Приволжский,Кировская,Омутнинск,9039bbb5-93a8-4172-b97c-af2b9abbb614,UTC+3,58.6698913,52.1894564,23618
"Кировская обл, г Орлов",Приволжский,Кировская,Орлов,0302ec51-eea9-4343-9248-ce4878ca465e,UTC+3,58.5389776,48.8927723,6959
"Кировская обл, г Слободской",Приволжский,Кировская,Слободской,8effba3d-4f82-45f6-938a-f1eac4405623,UTC+3,58.7311574,50.1669249,33983
"Кировская обл, г Советск",Приволжский,Кировская,Советск,2fa0734f-2b29-49d5-862f-29f15d88a402,UTC+3,57.584196,48.9590272,16592
"Кировская обл, Вятскополянский р-н, г Сосновка",Приволжский,Кировская,Сосновка,9e9afbb6-8de5-4765-a69f-2c4dfa498006,UTC+3,56.2532741,51.2833642,11960
"Кировская обл, г Уржум",Приволжский,Кировская,Уржум,759037c3-6408-4466-afe4-b10adc4edff4,UTC+3,57.1097477,50.0058097,10213
"Кировская обл, г Яранск",Приволжский,Кировская,Яранск,af4098b9-6200-450a-999f-6e732cbdbac3,UTC+3,57.3040326,47.8478737,17252
"Респ Коми, г Воркута",Северо-Западный,Коми,Воркута,e0bf9ea3-7cbf-4b13-95f1-32c3ee9b3ae5,UTC+3,67.4974082,64.061034,70551
"Респ Коми, г Вуктыл",Северо-Западный,Коми,Вуктыл,f69a676b-8ede-4a19-80b6-6db85a12b5e1,UTC+3,63.8615274,57.3165402,12357
"Респ Коми, г Емва",Северо-Западный,Коми,Емва,77fc9582-dbc7-4696-9ddc-00471e94553f,UTC+3,62.5965137,50.8732125,14574
"Респ Коми, г Инта",Северо-Западный,Коми,Инта,1b136d3e-3bd6-440c-a3fd-23303143c440,UTC+3,66.0367316,60.1152961,32021
"Респ Коми, Усть-Вымский р-н, г Микунь",Северо-Западный,Коми,Микунь,2144ca72-ea8d-4ad6-90bc-e8443944087a,UTC+3,62.3579068,50.0719503,10732
"Респ Коми, г Печора",Северо-Западный,Коми,Печора,e0ba898b-b813-4293-b817-510d586afd6e,UTC+3,65.148584,57.2239777,43458
"Респ Коми, г Сосногорск",Северо-Западный,Коми,Сосногорск,9a2569ae-14fb-43bb-b192-a4c29c463c28,UTC+3,63.5989841,53.876293,27809
г Сыктывкар,Северо-Западный,Коми,Сыктывкар,d2944a73-daf4-4a08-9b34-d9b0af7785a1,UTC+3,61.6686617,50.8358151,235006
"Респ Коми, г Усинск",Северо-Западный,Коми,Усинск,267fd50d-0077-4041-9594-18b1de5f2acb,UTC+3,65.994147,57.5569423,41100
"Респ Коми, г Ухта",Северо-Западный,Коми,Ухта,067b4cef-e128-4d5a-8305-fecf53e7b7e8,UTC+3,63.5565514,53.7014239,99642
"Костромская обл, г Буй",Центральный,Костромская,Буй,9180ffd0-7f8d-4fdb-a284-583f27e378eb,UTC+3,58.4733277,41.5306822,25763
"Костромская обл, г Волгореченск",Центральный,Костромская,Волгореченск,40eb94b1-c51e-455c-92af-7dafaaa92caa,UTC+3,57.4424559,41.1594201,17108
"Костромская обл, г Галич",Центральный,Костромская,Галич,f2bc7c4a-cf05-48da-aed1-9abd3c57925b,UTC+3,58.3828191,42.3654013,17346
"Костромская обл, г Кологрив",Центральный,Костромская,Кологрив,2382db41-3085-4e55-a612-d597535ae960,UTC+3,58.8269323,44.3184927,3314
г Кострома,Центральный,Костромская,Кострома,14c73394-b886-40a9-9e5c-547cfd4d6aad,UTC+3,57.768,40.927,268617
"Костромская обл, г Макарьев",Центральный,Костромская,Макарьев,dda6ff96-ff7e-4ea0-a9eb-6bfefe3b1ec8,UTC+3,57.8807152,43.8014197,7114
"Костромская обл, г Мантурово",Центральный,Костромская,Мантурово,b045e8f1-b705-4211-862a-101df62b4feb,UTC+3,58.3265441,44.757494,17479
"Костромская обл, г Нерехта",Центральный,Костромская,Нерехта,d8fcde72-38b9-4032-9670-fa496983e62f,UTC+3,57.4543369,40.5723598,22817
"Костромская обл, г Нея",Центральный,Костромская,Нея,39d5f8b9-551c-42ee-8fbc-d44ceb427b47,UTC+3,58.2943349,43.8780948,9827
"Костромская обл, г Солигалич",Центральный,Костромская,Солигалич,35df6629-3c19-4285-8a6c-559750ec36ae,UTC+3,59.0784867,42.2878423,6438
"Костромская обл, г Чухлома",Центральный,Костромская,Чухлома,fbadac52-08d8-46f2-b2c6-d272b79f36c1,UTC+3,58.753421,42.6884958,5209
"Костромская обл, г Шарья",Центральный,Костромская,Шарья,c78b9b9e-ace7-46d0-9f6f-c259d7f65e4f,UTC+3,58.3760542,45.4062414,23668
"Краснодарский край, г Абинск",Южный,Краснодарский,Абинск,ecd4abbc-79eb-4dd9-b02d-b10760fbc4ff,UTC+3,44.8679655,38.1618157,34926
"Краснодарский край, г Анапа",Южный,Краснодарский,Анапа,eeb7a0a7-3bbf-4f00-8a03-a7eabc257bed,UTC+3,44.8950433,37.3163282,58983
"Краснодарский край, г Апшеронск",Южный,Краснодарский,Апшеронск,7b9a7eb9-0d6d-4135-ad1c-3c059db9f386,UTC+3,44.4584006,39.7299824,40229
"Краснодарский край, г Армавир",Южный,Краснодарский,Армавир,fc9c55d0-c66e-455e-8034-b0944b025c38,UTC+3,45.0012149,41.1324168,188897
"Краснодарский край, г Белореченск",Южный,Краснодарский,Белореченск,ce9dccce-d0a3-49c4-a934-3f8de7fbed2a,UTC+3,44.7651876,39.8781494,53891
"Краснодарский край, г Геленджик",Южный,Краснодарский,Геленджик,e157b9c0-f908-48bc-a1d7-39c482a501a5,UTC+3,44.5630007,38.0790852,54813
"Краснодарский край, г Горячий Ключ",Южный,Краснодарский,Горячий Ключ,298ebb96-d9c3-4809-b466-386c778234a5,UTC+3,44.6344864,39.1354738,30093
"Краснодарский край, г Гулькевичи",Южный,Краснодарский,Гулькевичи,3039644e-5690-43b6-abbc-2d190f6dcecf,UTC+3,45.3605121,40.6918389,35225
"Краснодарский край, г Ейск",Южный,Краснодарский,Ейск,d22840fe-89f7-4f1a-8591-c51b87a7aec2,UTC+3,46.71157,38.2763895,87771
"Краснодарский край, г Кореновск",Южный,Краснодарский,Кореновск,76e1af12-0fae-42b0-8771-02191d803ad0,UTC+3,45.4641703,39.458949,41179
г Краснодар,Южный,Краснодарский,Краснодар,7dfa745e-aa19-4688-b121-b655c11e482f,UTC+3,45.0401604,38.9759647,744933
"Краснодарский край, Кавказский р-н, г Кропоткин",Южный,Краснодарский,Кропоткин,a4f6512e-2ee9-4250-b241-b58504a886b4,UTC+3,45.4333007,40.5727951,80743
"Краснодарский край, г Крымск",Южный,Краснодарский,Крымск,ae6c6804-3c18-4337-bb6e-7479a8cb64f6,UTC+3,44.9344404,37.9855795,57370
"Краснодарский край, г Курганинск",Южный,Краснодарский,Курганинск,2c58f372-aac8-4645-b41a-f39bdffef373,UTC+3,44.8877025,40.5913245,47974
"Краснодарский край, г Лабинск",Южный,Краснодарский,Лабинск,0ec1acd4-d7bb-49f7-87c2-d66edb24f587,UTC+3,44.6354363,40.7245341,62822
"Краснодарский край, г Новокубанск",Южный,Краснодарский,Новокубанск,38dd5f45-0a56-4554-93d8-3edfcdf000dd,UTC+3,45.1038699,41.0475175,34847
"Краснодарский край, г Новороссийск",Южный,Краснодарский,Новороссийск,16ac039a-5257-4715-a8c5-d6bd9e617b53,UTC+3,44.7235026,37.7686135,241788
"Краснодарский край, г Приморско-Ахтарск",Южный,Краснодарский,Приморско-Ахтарск,d9efcf77-c371-434d-a41e-f20e3b4c83c0,UTC+3,46.0515432,38.1704875,32253
"Краснодарский край, г Славянск-на-Кубани",Южный,Краснодарский,Славянск-на-Кубани,06e2b3b8-c02c-4722-887f-168236ae5382,UTC+3,45.2603626,38.1259774,63768
"Краснодарский край, г Сочи",Южный,Краснодарский,Сочи,79da737a-603b-4c19-9b54-9114c96fb912,UTC+3,43.5854551,39.7231548,343285
"Краснодарский край, г Темрюк",Южный,Краснодарский,Темрюк,3d6724a2-9641-44e6-bc69-097d93c01cb9,UTC+3,45.2610949,37.4454412,38014
"Краснодарский край, г Тимашевск",Южный,Краснодарский,Тимашевск,f09d518d-5617-476f-8c76-877899375202,UTC+3,45.615923,38.9351837,53921
"Краснодарский край, г Тихорецк",Южный,Краснодарский,Тихорецк,1d3511c8-b1dc-49c5-b5fb-3533ed4ce3c4,UTC+3,45.8546345,40.1260267,61825
"Краснодарский край, г Туапсе",Южный,Краснодарский,Туапсе,d0e68eaf-5ea0-4e65-81b6-b6f55c4df6f5,UTC+3,44.1105335,39.0824904,63233
"Краснодарский край, г Усть-Лабинск",Южный,Краснодарский,Усть-Лабинск,f5743b34-7858-46b4-99ca-050a4efa356d,UTC+3,45.2227359,39.6929577,43268
"Краснодарский край, Апшеронский р-н, г Хадыженск",Южный,Краснодарский,Хадыженск,e27ea530-bc56-43b3-8ff7-24db68ae2760,UTC+3,44.4122963,39.5320258,21580
"Красноярский край, Курагинский р-н, г Артемовск",Сибирский,Красноярский,Артемовск,d0d7a2fa-5bdc-4944-8047-75e80e4e883c,UTC+7,54.3473075,93.4358377,2180
"Красноярский край, г Ачинск",Сибирский,Красноярский,Ачинск,c3689d32-dea5-49c8-b69b-b8d2daa1d36b,UTC+7,56.253907,90.4794397,109156
"Красноярский край, г Боготол",Сибирский,Красноярский,Боготол,cb56cf76-4a34-428d-8244-a802414d5fac,UTC+7,56.2098468,89.5299336,21029
"Красноярский край, г Бородино",Сибирский,Красноярский,Бородино,78d7587f-ef26-48dc-81c6-d3ff445c9c8b,UTC+7,55.9054121,94.9020967,17423
"Красноярский край, г Дивногорск",Сибирский,Красноярский,Дивногорск,76cc6918-6b7c-42b4-80da-4635d97d0da1,UTC+7,55.9576784,92.3800687,28271
"Красноярский край, г Дудинка",Сибирский,Красноярский,Дудинка,80b72eaa-bcf7-4759-b291-09ee5e8b3377,UTC+7,69.4031364,86.1907218,22207
"Красноярский край, г Енисейск",Сибирский,Красноярский,Енисейск,6eb21d40-5098-49bc-8b08-ac1a2805d22b,UTC+7,58.4485261,92.1651083,18769
"Красноярский край, г Железногорск",Сибирский,Красноярский,Железногорск,e532b3c3-d300-4585-ada6-40e7900c2abf,UTC+7,56.2529035,93.532273,85559
"Красноярский край, Рыбинский р-н, г Заозерный",Сибирский,Красноярский,Заозерный,1f8ea2c9-d6f7-4c30-b76d-2aa81640732e,UTC+7,55.9617752,94.7091491,10683
"Красноярский край, г Зеленогорск",Сибирский,Красноярский,Зеленогорск,38f208d6-6f29-4d30-b826-b42e8beecc67,UTC+7,56.1131564,94.5888103,66018
"Красноярский край, Туруханский р-н, г Игарка",Сибирский,Красноярский,Игарка,59a84d36-af93-4e61-aac4-999431645666,UTC+7,67.4666901,86.5812794,6183
"Красноярский край, г Иланский",Сибирский,Красноярский,Иланский,8fa29485-6bce-450c-8c5c-26b8ab682bde,UTC+7,56.2374037,96.067267,16108
"Красноярский край, г Канск",Сибирский,Красноярский,Канск,75917770-c4cb-44d8-afcc-8a6d395c3bc2,UTC+7,56.2051282,95.7051096,94230
"Красноярский край, г Кодинск",Сибирский,Красноярский,Кодинск,a97aba0e-9624-4e6c-8296-4e5fa103ddf0,UTC+7,58.6032644,99.1797962,14835
г Красноярск,Сибирский,Красноярский,Красноярск,9b968c73-f4d4-4012-8da8-3dacd4d4c1bd,UTC+7,56.0093879,92.8524806,973826
"Красноярский край, г Лесосибирск",Сибирский,Красноярский,Лесосибирск,2ddd48d6-e95b-4972-a34e-8586ed507763,UTC+7,58.221681,92.5037872,61146
"Красноярский край, г Минусинск",Сибирский,Красноярский,Минусинск,5cfaf0c0-8f59-4321-9a5b-4b1c51b3779f,UTC+7,53.7104586,91.6872907,71171
"Красноярский край, г Назарово",Сибирский,Красноярский,Назарово,ab0a1754-5ba1-48bb-8960-475c7fbc9feb,UTC+7,56.0113799,90.4168775,52829
"Красноярский край, г Норильск",Сибирский,Красноярский,Норильск,d301a980-4a45-4066-9a20-4e783856a562,UTC+7,69.3489978,88.2009846,175301
"Красноярский край, г Сосновоборск",Сибирский,Красноярский,Сосновоборск,a139c8ba-831e-4ee5-87a9-1eead6984288,UTC+7,56.1202647,93.3354121,33090
"Красноярский край, г Ужур",Сибирский,Красноярский,Ужур,2730ee56-f5f7-472d-9e58-04c0b692bb8d,UTC+7,55.3141969,89.8333918,16079
"Красноярский край, г Уяр",Сибирский,Красноярский,Уяр,aab80404-c16d-43b2-92d4-eb06639f37c2,UTC+7,55.8131263,94.3282601,12666
"Красноярский край, г Шарыпово",Сибирский,Красноярский,Шарыпово,e21e9175-86f9-4e24-b129-abdee0f956dc,UTC+7,55.5389739,89.1801044,38570
"Респ Крым, г Ялта, г Алупка",Южный,Крым,Алупка,daa6815b-0cf0-44c7-981c-84d72d51f2b1,UTC+3,44.4164605,34.0444797,7771
"Респ Крым, г Алушта",Южный,Крым,Алушта,1fb30227-c758-4b1a-814b-eab9c8e7a582,UTC+3,44.6764304,34.4100624,29078
"Респ Крым, г Армянск",Южный,Крым,Армянск,2634dc63-5ab7-4b52-81de-ab6745a8eb02,UTC+3,46.1059307,33.6910012,21987
"Респ Крым, Бахчисарайский р-н, г Бахчисарай",Южный,Крым,Бахчисарай,bc8c57aa-1f97-4b2a-98ef-fc16bbb0d6cc,UTC+3,44.7514769,33.8752176,27448
"Респ Крым, Белогорский р-н, г Белогорск",Южный,Крым,Белогорск,b8fb5c0b-4de5-4fa4-aa50-e5dc9265116a,UTC+3,45.057202,34.5999029,16354
"Респ Крым, г Джанкой",Южный,Крым,Джанкой,84a2685c-0d4b-4d2c-829c-e4a1d5f89620,UTC+3,45.7092306,34.3883372,38622
"Респ Крым, г Евпатория",Южный,Крым,Евпатория,e11bab0f-338d-43e0-bfa4-1d3c87759e2a,UTC+3,45.190629,33.367634,105719
"Респ Крым, г Керчь",Южный,Крым,Керчь,b7b1ef3e-bd1c-4080-80ea-f0580b40281b,UTC+3,45.3562627,36.4674513,147033
"Респ Крым, г Красноперекопск",Южный,Крым,Красноперекопск,1df1381d-cef8-4042-a5f8-4c18519d42b0,UTC+3,45.9537576,33.7921939,26268
"Респ Крым, г Саки",Южный,Крым,Саки,afb681bd-4264-40ce-a676-cab8b33c7ca0,UTC+3,45.1341997,33.6033383,25146
"Респ Крым, г Симферополь",Южный,Крым,Симферополь,b9001e55-72ed-43bf-b7eb-41b86a14380e,UTC+3,44.9482948,34.1001151,332317
"Респ Крым, Кировский р-н, г Старый Крым",Южный,Крым,Старый Крым,3f9914af-d6b7-47bb-9787-a12a6cf5d1d2,UTC+3,45.029058,35.0901474,9277
"Респ Крым, г Судак",Южный,Крым,Судак,9481ba52-663f-4cac-9ba9-67f168016eab,UTC+3,44.8504679,34.9762034,16492
"Респ Крым, г Феодосия",Южный,Крым,Феодосия,ddc99126-8c9c-49e0-be2b-e05d2dcdf22e,UTC+3,45.0318393,35.3824259,69038
"Респ Крым, Ленинский р-н, г Щелкино",Южный,Крым,Щелкино,e6010aa6-5f02-4beb-bcd6-d0a31fa6e978,UTC+3,45.4288991,35.825165,10620
"Респ Крым, г Ялта",Южный,Крым,Ялта,c64ea472-28c6-4242-968f-0e1a08830f8e,UTC+3,44.4953612,34.166308,76746
"Курганская обл, г Далматово",Уральский,Курганская,Далматово,7a5390a0-3cde-4616-92f4-8f59b9a4ad5c,UTC+5,56.262114,62.9387011,13913
"Курганская обл, г Катайск",Уральский,Курганская,Катайск,a0d524d7-5863-4a73-be5b-c165ad2f5e74,UTC+5,56.290809,62.5800359,14017
г Курган,Уральский,Курганская,Курган,3bbda77d-ba3f-4457-9d44-c440815cda89,UTC+5,55.4443883,65.3161963,333640
"Курганская обл, г Куртамыш",Уральский,Курганская,Куртамыш,167681ea-0c54-48e2-8c4b-c03f71c9c248,UTC+5,54.9368539,64.4203722,17098
"Курганская обл, г Макушино",Уральский,Курганская,Макушино,fe024a51-2da6-4ce6-b727-493a829741ad,UTC+5,55.2153947,67.2451705,8337
"Курганская обл, г Петухово",Уральский,Курганская,Петухово,a476869f-895d-4764-8c88-c406a092f124,UTC+5,55.0650077,67.8873408,11291
"Курганская обл, г Шадринск",Уральский,Курганская,Шадринск,7870abeb-8b0f-4899-920b-3ab8ff6024c0,UTC+5,56.0870344,63.6297182,77744
"Курганская обл, г Шумиха",Уральский,Курганская,Шумиха,79685d02-4ac3-42a0-905d-f123918ca296,UTC+5,55.2280246,63.2901272,17821
"Курганская обл, г Щучье",Уральский,Курганская,Щучье,a7b4ee16-32cf-4f35-b1c7-f7ab4e458823,UTC+5,55.2087637,62.7478548,10971
"Курская обл, Дмитриевский р-н, г Дмитриев",Центральный,Курская,Дмитриев,d3ce7d17-c746-4ea3-a564-34903b79a3fd,UTC+3,52.1268464,35.0739038,7721
"Курская обл, г Железногорск",Центральный,Курская,Железногорск,b73b7c50-112e-4b04-82df-1e0cea13de4b,UTC+3,52.3380202,35.3516867,95057
г Курск,Центральный,Курская,Курск,d790c72e-479b-4da2-90d7-842b1712a71c,UTC+3,51.7303637,36.1925603,414595
"Курская обл, г Курчатов",Центральный,Курская,Курчатов,a6d4bd96-8c96-4c15-86df-73087f55534d,UTC+3,51.6604083,35.6572224,42691
"Курская обл, г Льгов",Центральный,Курская,Льгов,6fe805e1-1dde-42cd-821e-173ffe50885d,UTC+3,51.6597148,35.2612491,21452
"Курская обл, г Обоянь",Центральный,Курская,Обоянь,60d797fd-62b0-4705-9f5b-aa0a67c5c749,UTC+3,51.2119324,36.2755133,13562
"Курская обл, г Рыльск",Центральный,Курская,Рыльск,fa2b3c62-6e92-4155-a981-d19ea4999342,UTC+3,51.5681314,34.6802597,15667
"Курская обл, г Суджа",Центральный,Курская,Суджа,abd43820-a1d4-4e16-adb4-8532959b6e98,UTC+3,51.1918927,35.2720915,6036
"Курская обл, г Фатеж",Центральный,Курская,Фатеж,f5c96821-4438-461c-b5da-2c812cd0bc0a,UTC+3,52.0917728,35.8538706,5404
"Курская обл, г Щигры",Центральный,Курская,Щигры,9382c84c-3d08-4136-a674-9402da0b9e40,UTC+3,51.8786014,36.8910945,17043
"Ленинградская обл, г Бокситогорск",Северо-Западный,Ленинградская,Бокситогорск,1a12dc30-ca4c-480f-89dd-31452648b493,UTC+3,59.4734797,33.845688,16593
"Ленинградская обл, г Волосово",Северо-Западный,Ленинградская,Волосово,eb8a9d09-6728-43fe-b3d1-21a2c804b40c,UTC+3,59.4445408,29.4923355,12162
"Ленинградская обл, г Волхов",Северо-Западный,Ленинградская,Волхов,d77089df-c8ed-464d-a26b-69ce42383a0f,UTC+3,59.9005958,32.3520756,47344
"Ленинградская обл, г Всеволожск",Северо-Западный,Ленинградская,Всеволожск,c70a5280-c482-4f6e-801a-cdd6851eab50,UTC+3,60.0191278,30.6456718,59689
"Ленинградская обл, г Выборг",Северо-Западный,Ленинградская,Выборг,a4a3e3af-ce5a-4eba-9aae-36c350fa7fec,UTC+3,60.7130801,28.7328336,80013
"Ленинградская обл, Выборгский р-н, г Высоцк",Северо-Западный,Ленинградская,Высоцк,f0a4b813-7189-4bd4-8a3a-aaa7fbed4711,UTC+3,60.6296236,28.5709314,1244
"Ленинградская обл, г Гатчина",Северо-Западный,Ленинградская,Гатчина,d193a2f8-4ea1-406a-ba9a-698ae19caeb7,UTC+3,59.565237,30.1282473,92566
"Ленинградская обл, Кингисеппский р-н, г Ивангород",Северо-Западный,Ленинградская,Ивангород,752d9929-945c-4464-ae38-20a626108da9,UTC+3,59.3766119,28.2231659,9797
"Ленинградская обл, Выборгский р-н, г Каменногорск",Северо-Западный,Ленинградская,Каменногорск,58399f33-3e18-4921-950a-ac0fa5f9e97c,UTC+3,60.950855,29.1308372,6761
"Ленинградская обл, г Кингисепп",Северо-Западный,Ленинградская,Кингисепп,ef14bc6b-dd76-4264-bb40-c0fd8a60985b,UTC+3,59.3740435,28.6112444,48667
"Ленинградская обл, г Кириши",Северо-Западный,Ленинградская,Кириши,52da70f1-08b0-4b4c-9d22-d67a62bc2aa5,UTC+3,59.4742862,32.0624947,52826
"Ленинградская обл, г Кировск",Северо-Западный,Ленинградская,Кировск,a1535e5e-c151-431a-a4c4-954d4545e37a,UTC+3,59.8754216,30.981364,25633
"Ленинградская обл, Гатчинский р-н, г Коммунар",Северо-Западный,Ленинградская,Коммунар,459dca99-04ff-44fb-af9f-7e2100ec28ac,UTC+3,59.6215133,30.3934125,20265
"Ленинградская обл, Всеволожский р-н, г Кудрово",Северо-Западный,Ленинградская,Кудрово,98cd19c4-e172-4fa3-a81d-7caedeec669b,UTC+3,59.9075226,30.5121008,13501
"Ленинградская обл, г Лодейное Поле",Северо-Западный,Ленинградская,Лодейное Поле,5f52edf9-92aa-4e69-9314-e629c45ec1d5,UTC+3,60.7320936,33.5521022,21053
"Ленинградская обл, г Луга",Северо-Западный,Ленинградская,Луга,d9135f5d-627e-441d-b208-9087ee0367dd,UTC+3,58.7374031,29.8465776,36409
"Ленинградская обл, Тосненский р-н, г Любань",Северо-Западный,Ленинградская,Любань,cda96dc0-75b2-411b-b995-16cc63fcfa05,UTC+3,59.3493847,31.2484801,4188
"Ленинградская обл, Всеволожский р-н, г Мурино",Северо-Западный,Ленинградская,Мурино,d73506c5-015c-4c39-929a-696ea8144e16,UTC+3,60.044862,30.4571456,19775
"Ленинградская обл, Тосненский р-н, г Никольское",Северо-Западный,Ленинградская,Никольское,43cb88de-fa89-4027-b3ef-84deb2d32ce5,UTC+3,59.7043309,30.7874571,19345
"Ленинградская обл, Волховский р-н, г Новая Ладога",Северо-Западный,Ленинградская,Новая Ладога,2145f2cb-3ec2-4c1d-bd52-f84b2858c6a9,UTC+3,60.1100135,32.3141203,8890
"Ленинградская обл, Кировский р-н, г Отрадное",Северо-Западный,Ленинградская,Отрадное,c4602384-ff62-4e0f-bf4b-06a5c653702b,UTC+3,59.7726848,30.7988557,23874
"Ленинградская обл, Бокситогорский р-н, г Пикалево",Северо-Западный,Ленинградская,Пикалево,0a243487-acce-4775-979a-5a08e8c62da6,UTC+3,59.5132022,34.1772776,21567
"Ленинградская обл, г Подпорожье",Северо-Западный,Ленинградская,Подпорожье,6d13b512-6d25-413a-ab29-3d9ade960f3a,UTC+3,60.9127549,34.1567664,18729
"Ленинградская обл, Выборгский р-н, г Приморск",Северо-Западный,Ленинградская,Приморск,878aa7cc-76f0-42c8-90f5-3489f43c169c,UTC+3,60.3660209,28.6135772,6122
"Ленинградская обл, г Приозерск",Северо-Западный,Ленинградская,Приозерск,59a9c284-72fb-49e6-8380-10ca044d0bd7,UTC+3,61.0330896,30.1587851,18929
"Ленинградская обл, Выборгский р-н, г Светогорск",Северо-Западный,Ленинградская,Светогорск,d4789972-b71d-4e70-9af8-f4acfcf80c71,UTC+3,61.1111282,28.8725865,15973
"Ленинградская обл, Всеволожский р-н, г Сертолово",Северо-Западный,Ленинградская,Сертолово,79b806cd-e36c-48fc-b82c-8cbb5cfd9450,UTC+3,60.1446932,30.2095918,47854
"Ленинградская обл, г Сланцы",Северо-Западный,Ленинградская,Сланцы,a7a1a8e5-45b2-4542-b718-0976702ccd90,UTC+3,59.1178185,28.0881475,33587
"Ленинградская обл, г Сосновый Бор",Северо-Западный,Ленинградская,Сосновый Бор,f4a4b31f-9f0a-4fdb-804c-d67661085eb4,UTC+3,59.8772884,29.1291619,65901
"Ленинградская обл, Волховский р-н, г Сясьстрой",Северо-Западный,Ленинградская,Сясьстрой,f59186fa-b4db-4b2d-88b9-e3fde4a90690,UTC+3,60.1401739,32.5601559,13747
"Ленинградская обл, г Тихвин",Северо-Западный,Ленинградская,Тихвин,86ec26f6-d980-4c40-b4ce-77e1638ec8ad,UTC+3,59.6272904,33.5072731,58843
"Ленинградская обл, г Тосно",Северо-Западный,Ленинградская,Тосно,165119d1-6555-4473-8b90-46ec517b4076,UTC+3,59.5407098,30.877812,39127
"Ленинградская обл, Кировский р-н, г Шлиссельбург",Северо-Западный,Ленинградская,Шлиссельбург,5a543514-a133-431c-919e-8a61c2261783,UTC+3,59.9443714,31.0333365,13305
"Липецкая обл, г Грязи",Центральный,Липецкая,Грязи,f073b28a-b8f8-4eee-adfd-cfbf769c6771,UTC+3,52.4874097,39.9331142,46798
"Липецкая обл, г Данков",Центральный,Липецкая,Данков,ad0cefe8-456d-4cac-bee3-c3e910187f4a,UTC+3,53.2577411,39.1456184,21056
"Липецкая обл, г Елец",Центральный,Липецкая,Елец,8261b161-ceac-4fa2-9fe8-593cb2a28210,UTC+3,52.6152411,38.5289342,108404
"Липецкая обл, г Задонск",Центральный,Липецкая,Задонск,4c035f08-697c-4ad0-9c8e-7b7a8a385974,UTC+3,52.4004179,38.9205032,9695
"Липецкая обл, г Лебедянь",Центральный,Липецкая,Лебедянь,d8a96228-5392-4c32-98cb-6a7ac20db942,UTC+3,53.0156117,39.143536,20991
г Липецк,Центральный,Липецкая,Липецк,eacb5f15-1a2e-432e-904a-ca56bd635f1b,UTC+3,52.610249,39.5947883,508124
"Липецкая обл, г Усмань",Центральный,Липецкая,Усмань,1b3ce1ae-6edd-464b-ab82-79237510cd5c,UTC+3,52.0442648,39.726401,18752
"Липецкая обл, г Чаплыгин",Центральный,Липецкая,Чаплыгин,4aed94c2-977d-41cc-bc72-312026ec4117,UTC+3,53.24048,39.9670973,12656
г Магадан,Дальневосточный,Магаданская,Магадан,cb8ae35a-93df-4133-b377-50f3698c8b5e,UTC+11,59.5681332,150.8084956,95925
"Магаданская обл, г Сусуман",Дальневосточный,Магаданская,Сусуман,b617d714-cbce-4abe-bf0d-668be5e3d670,UTC+11,62.7805882,148.1540281,5865
"Респ Марий Эл, г Волжск",Приволжский,Марий Эл,Волжск,f183b079-b65f-4781-9b79-310ba29b724d,UTC+3,55.8623156,48.3715083,55671
"Респ Марий Эл, г Звенигово",Приволжский,Марий Эл,Звенигово,a9999751-53ff-4b43-b15f-6ad8034705ba,UTC+3,55.9738571,48.0170245,11945
г Йошкар-Ола,Приволжский,Марий Эл,Йошкар-Ола,0648e41c-a09b-4eac-91cd-8cf61b9ccb7b,UTC+3,56.6343662,47.8999706,248688
"Респ Марий Эл, г Козьмодемьянск",Приволжский,Марий Эл,Козьмодемьянск,70f9ed24-8b25-4688-857f-a337710d4825,UTC+3,56.3334036,46.546675,21262
"Респ Мордовия, г Ардатов",Приволжский,Мордовия,Ардатов,edab359e-50ac-422a-9117-78ce44b6f758,UTC+3,54.8465544,46.2411232,9400
"Респ Мордовия, г Инсар",Приволжский,Мордовия,Инсар,e5473064-cb2e-4da5-aa2b-42599c031705,UTC+3,53.8770022,44.3696566,8687
"Респ Мордовия, г Ковылкино",Приволжский,Мордовия,Ковылкино,53445e0f-9d61-4359-9f4f-4983ff7aec34,UTC+3,54.0391072,43.9191539,21307
"Респ Мордовия, г Краснослободск",Приволжский,Мордовия,Краснослободск,870f93e7-2c41-45eb-baeb-b78cbcd79288,UTC+3,54.4248207,43.7845011,10151
"Респ Мордовия, г Рузаевка",Приволжский,Мордовия,Рузаевка,a35889dd-6958-4d3e-8a65-3f628b9179ed,UTC+3,54.0581967,44.9490466,47529
г Саранск,Приволжский,Мордовия,Саранск,1ccfdc3c-be0f-4e42-ab4d-98f90de972d9,UTC+3,54.1809332,45.1862632,318841
"Респ Мордовия, г Темников",Приволжский,Мордовия,Темников,7a57dd0c-5b64-480e-8369-3e22261e2bf0,UTC+3,54.6310583,43.2161099,7247
г Москва,Центральный,Москва,Москва,0c5b2444-70a0-4932-980c-b4dc0d3f02b5,UTC+3,55.7540471,37.620405,11514330
"Московская обл, г Наро-Фоминск, г Апрелевка",Центральный,Московская,Апрелевка,17b4ba8a-4300-44e4-bbf7-5f0a8118ddf5,UTC+3,55.5276918,37.065143,18467
"Московская обл, г Балашиха",Центральный,Московская,Балашиха,27c5bc66-61bf-4a17-b0cd-ca0eb64192d6,UTC+3,55.796389,37.938283,215353
"Московская обл, г Воскресенск, г Белоозёрский",Центральный,Московская,Белоозёрский,76a108ed-a04d-41d0-a556-39865e793886,UTC+3,55.4595766,38.4389742,17842
"Московская обл, г Бронницы",Центральный,Московская,Бронницы,582fae29-5955-4dba-9f77-ebf9a8e60827,UTC+3,55.4255379,38.264145,21102
"Московская обл, г Наро-Фоминск, г Верея",Центральный,Московская,Верея,abda86de-97b7-4098-9d09-e1835c6e8797,UTC+3,55.343369,36.185694,5368
"Московская обл, г Видное",Центральный,Московская,Видное,9a72b510-9413-41d8-b076-576fbfd78404,UTC+3,55.551725,37.7061984,56798
"Московская обл, г Волоколамск",Центральный,Московская,Волоколамск,ca8fb626-709c-4851-a8d6-cbfd592c3bf8,UTC+3,56.0356499,35.9585112,23386
"Московская обл, г Воскресенск",Центральный,Московская,Воскресенск,555e9f1b-627a-4444-b19e-27fb9d67a093,UTC+3,55.3071519,38.7027953,91301
"Московская обл, г Клин, г Высоковск",Центральный,Московская,Высоковск,a8ad4e79-a4c9-4f2e-ade5-a7fa3ab0da03,UTC+3,56.3359513,36.5251837,10642
"Московская обл, г Одинцово, г Голицыно",Центральный,Московская,Голицыно,963efb34-c804-43b4-9298-8e145d188ed0,UTC+3,55.6190582,36.9856793,17447
"Московская обл, г Истра, г Дедовск",Центральный,Московская,Дедовск,05b3833e-37b3-470e-bf21-78adf1eec36f,UTC+3,55.8703276,37.1245043,29280
"Московская обл, г Дзержинский",Центральный,Московская,Дзержинский,6fa8b59c-cda7-4c98-8b41-e0bcb2867e16,UTC+3,55.6240869,37.8440276,47125
"Московская обл, г Дмитров",Центральный,Московская,Дмитров,0d8a246f-6446-403e-91c6-3aec9cdbfc32,UTC+3,56.3477457,37.526672,61454
"Московская обл, г Долгопрудный",Центральный,Московская,Долгопрудный,dcf522ad-e032-4db9-9dbb-e30d2cddfadb,UTC+3,55.9385999,37.5101021,90976
"Московская обл, г Домодедово",Центральный,Московская,Домодедово,d177d438-ea69-4169-854c-d4512d7c8ebe,UTC+3,55.4363283,37.7664984,96123
"Московская обл, г Орехово-Зуево, г Дрезна",Центральный,Московская,Дрезна,70643e37-137c-4e66-a06e-22feb7784740,UTC+3,55.7443143,38.8498479,11815
"Московская обл, г Дубна",Центральный,Московская,Дубна,c86ad06c-c721-4a7e-aa06-f622eed83b6f,UTC+3,56.741786,37.1757223,70569
"Московская обл, г Егорьевск",Центральный,Московская,Егорьевск,17a3426e-add6-4b2e-b4b1-6f36da02b6ab,UTC+3,55.3830113,39.0358317,70133
"Московская обл, г Жуковский",Центральный,Московская,Жуковский,fd91f393-4820-437f-a50c-907e9856c374,UTC+3,55.599803,38.1224298,102729
"Московская обл, г Зарайск",Центральный,Московская,Зарайск,98e62df9-591a-45af-876e-471060d057aa,UTC+3,54.762456,38.8850978,24648
"Московская обл, г Одинцово, г Звенигород",Центральный,Московская,Звенигород,4bae8c68-e107-4352-9d4b-f937f90469ac,UTC+3,55.7297089,36.8554029,16395
"Московская обл, г Ивантеевка",Центральный,Московская,Ивантеевка,e12cf909-779a-4352-af51-7a2a07668f60,UTC+3,55.9741665,37.9207539,58594
"Московская обл, г Истра",Центральный,Московская,Истра,f05b2b62-f54c-4b44-aff2-6bc3e55a640c,UTC+3,55.9062267,36.8601454,35106
"Московская обл, г Кашира",Центральный,Московская,Кашира,45b3f9ac-43cd-4bd0-90af-74cf64ea67f7,UTC+3,54.853337,38.1904392,41880
"Московская обл, г Клин",Центральный,Московская,Клин,2365151a-7a78-4af5-a8fb-a4faff856df5,UTC+3,56.3425605,36.7240032,80584
"Московская обл, г Коломна",Центральный,Московская,Коломна,b367fb03-29f9-4dac-8d85-01595cfb6ad9,UTC+3,55.102814,38.7531002,144642
"Московская обл, г Королёв",Центральный,Московская,Королёв,819d6910-b4d1-474f-ad10-c1fa944dfca4,UTC+3,55.9161773,37.8545415,183452
"Московская обл, г Котельники",Центральный,Московская,Котельники,67488a01-ccb7-4638-bcad-117db0fbe9a3,UTC+3,55.6597925,37.8631156,32347
"Московская обл, г Красноармейск",Центральный,Московская,Красноармейск,bc5d23ce-e886-4dc7-976c-6b8be6d501d2,UTC+3,56.105426,38.140838,26294
"Московская обл, г Красногорск",Центральный,Московская,Красногорск,63fcf18a-365e-451f-baee-8d09ac50b773,UTC+3,55.8317203,37.3295266,116738
"Московская обл, г Сергиев Посад, г Краснозаводск",Центральный,Московская,Краснозаводск,6bec0be0-e5a7-4bf1-907a-9a1dadedc867,UTC+3,56.4409979,38.2320307,13432
"Московская обл, г Краснознаменск",Центральный,Московская,Краснознаменск,6e8a99b2-e6bd-4169-acb3-f7e6cd53be3b,UTC+3,55.5978959,37.0393709,36057
"Московская обл, г Одинцово, г Кубинка",Центральный,Московская,Кубинка,50341359-842b-4ba1-b7f2-398a7b72f829,UTC+3,55.5754955,36.6951995,22918
"Московская обл, г Орехово-Зуево, г Куровское",Центральный,Московская,Куровское,9eb64ec8-9b97-465c-8c4d-ae667862dd62,UTC+3,55.5792277,38.9207723,21821
"Московская обл, г Орехово-Зуево, г Ликино-Дулёво",Центральный,Московская,Ликино-Дулёво,4ae832d1-e532-45a2-b8a7-8f29aa0149e9,UTC+3,55.7078257,38.9578093,31331
"Московская обл, г Лобня",Центральный,Московская,Лобня,67c493d4-d141-407e-868b-dafc289503f3,UTC+3,56.0328881,37.4614035,74350
"Московская обл, г Лосино-Петровский",Центральный,Московская,Лосино-Петровский,96c869d9-51a8-4db6-8011-9fc459c9a78c,UTC+3,55.8713214,38.200599,22550
"Московская обл, г Луховицы",Центральный,Московская,Луховицы,7c6d9ebf-8b6a-4435-a174-eb8018f7c598,UTC+3,54.9652077,39.0260266,29849
"Московская обл, г Лыткарино",Центральный,Московская,Лыткарино,bba16a72-09e1-4f3f-93af-df5ecab6714b,UTC+3,55.5778163,37.9033507,55147
"Московская обл, г Люберцы",Центральный,Московская,Люберцы,427b4e19-f221-4abc-8904-81f7409c1ce3,UTC+3,55.676499,37.898125,171978
"Московская обл, г Можайск",Центральный,Московская,Можайск,4f86a11c-4258-4859-a227-a79c9ef400ff,UTC+3,55.5069259,36.024043,31388
"Московская обл, г Мытищи",Центральный,Московская,Мытищи,5f290be7-14ff-4ccd-8bc8-2871a9ca9d5f,UTC+3,55.9105782,37.7363579,173341
"Московская обл, г Наро-Фоминск",Центральный,Московская,Наро-Фоминск,08c78435-6ed8-4d7f-a7ed-3f73e2fa6359,UTC+3,55.386185,36.734484,64640
"Московская обл, г Ногинск",Центральный,Московская,Ногинск,40ae04e3-9a69-44ea-8bd7-6c6f08e1a4ca,UTC+3,55.8686133,38.4622104,99762
"Московская обл, г Одинцово",Центральный,Московская,Одинцово,6ae8ad9e-aa6c-4849-92d8-8e637059c9b0,UTC+3,55.6789455,37.263686,139021
"Московская обл, г Озёры",Центральный,Московская,Озёры,e778b800-b432-4150-82fd-d415911fb700,UTC+3,54.8541006,38.5599196,25788
"Московская обл, г Орехово-Зуево",Центральный,Московская,Орехово-Зуево,0f2f2d09-8e7a-4356-bd4d-0b055d802e7b,UTC+3,55.8151421,38.9869822,120620
"Московская обл, г Павловский Посад",Центральный,Московская,Павловский Посад,bb464d94-30bf-4cf8-a320-905733fa67e2,UTC+3,55.7807244,38.6596983,63771
"Московская обл, г Сергиев Посад, г Пересвет",Центральный,Московская,Пересвет,ea80b93f-7a37-455e-a42c-33f13ab8bc06,UTC+3,56.4158326,38.1733534,14142
"Московская обл, г Подольск",Центральный,Московская,Подольск,b22cf685-e391-42c8-aab5-a9aadb9193d4,UTC+3,55.4389322,37.5703482,187956
"Московская обл, г Протвино",Центральный,Московская,Протвино,9990bc45-c7c1-407e-bdd2-5526e4f742d2,UTC+3,54.8705984,37.2182749,37308
"Московская обл, г Пушкино",Центральный,Московская,Пушкино,7f22cfa4-34fa-4fa0-bcb0-620cd8402cfa,UTC+3,56.0103638,37.8471403,102840
"Московская обл, г Пущино",Центральный,Московская,Пущино,49579edb-77cd-4967-9ef2-5530c4076067,UTC+3,54.8324412,37.6210346,20263
"Московская обл, г Раменское",Центральный,Московская,Раменское,a54506e0-5641-4d8c-b543-7bcce2c9887f,UTC+3,55.5495132,38.2728914,96355
"Московская обл, г Реутов",Центральный,Московская,Реутов,e0504cf6-4d81-401c-b18b-434457aaaa21,UTC+3,55.7582621,37.8618553,87195
"Московская обл, г Шатура, г Рошаль",Центральный,Московская,Рошаль,377ca4f0-3268-42b4-bf68-af98c3682503,UTC+3,55.6632776,39.8656147,21265
"Московская обл, г Руза",Центральный,Московская,Руза,9e6c2327-d7ee-49b1-b36c-0bfc0eb5f145,UTC+3,55.7014744,36.1959206,13495
"Московская обл, г Сергиев Посад",Центральный,Московская,Сергиев Посад,7baaac39-aa31-4712-893d-51ef80124a86,UTC+3,56.3062548,38.1502661,110878
"Московская обл, г Серпухов",Центральный,Московская,Серпухов,efc02a6a-273b-4a49-aef9-a5606ef8591c,UTC+3,54.9226466,37.4033859,126496
"Московская обл, г Солнечногорск",Центральный,Московская,Солнечногорск,d4dadcfd-355d-4fe9-963d-48ad122a7778,UTC+3,56.185102,36.977631,52996
"Московская обл, г Ногинск, г Старая Купавна",Центральный,Московская,Старая Купавна,d49d936b-188f-4186-b2db-47e4b36682d6,UTC+3,55.810648,38.175624,21859
"Московская обл, г Ступино",Центральный,Московская,Ступино,f516f0a9-3882-42fb-ae68-87a433e83e06,UTC+3,54.886274,38.078228,66942
"Московская обл, г Талдом",Центральный,Московская,Талдом,5f2757f9-6cb1-41a6-9610-ee4f73a2f803,UTC+3,56.7308564,37.5276003,13819
"Московская обл, г Фрязино",Центральный,Московская,Фрязино,13696e0e-4c75-49aa-9c83-0a6faf5074ee,UTC+3,55.9590588,38.0410235,55449
"Московская обл, г Химки",Центральный,Московская,Химки,d76255c8-3173-4db5-a39b-badd3ebdf851,UTC+3,55.888657,37.4303702,207125
"Московская обл, г Сергиев Посад, г Хотьково",Центральный,Московская,Хотьково,6cdcecfe-4d41-426c-bac4-034348f7068b,UTC+3,56.2516982,37.9396017,21612
"Московская обл, г Черноголовка",Центральный,Московская,Черноголовка,70c5b1c8-43ec-471f-b3df-fd6f60557332,UTC+3,56.010005,38.379245,20986
"Московская обл, г Чехов",Центральный,Московская,Чехов,7eeb876e-7b67-4ed7-91ec-0588712db96c,UTC+3,55.1508011,37.4533252,60677
"Московская обл, г Шатура",Центральный,Московская,Шатура,cd6486b7-fd7a-4da8-b7f3-420d6e16b07b,UTC+3,55.5777427,39.5445712,32836
"Московская обл, г Щёлково",Центральный,Московская,Щёлково,c38a33c1-8f16-4454-bbf4-656d6b8b1739,UTC+3,55.9233801,37.9783707,110380
"Московская обл, г Электрогорск",Центральный,Московская,Электрогорск,091e36e6-fab6-477b-8b07-9151cbeb9cd5,UTC+3,55.8780241,38.7806752,22120
"Московская обл, г Электросталь",Центральный,Московская,Электросталь,e0b171b6-bf2e-4d68-ab05-4d42ab2b375a,UTC+3,55.7847291,38.4447045,155324
"Московская обл, г Ногинск, г Электроугли",Центральный,Московская,Электроугли,27fda454-386e-4618-8c08-4e639a0a8bc1,UTC+3,55.7170877,38.2192563,20120
"Московская обл, г Дмитров, г Яхрома",Центральный,Московская,Яхрома,4e503ad8-0372-4434-888c-f111ed78040c,UTC+3,56.2890516,37.4831799,13248
"Мурманская обл, г Апатиты",Северо-Западный,Мурманская,Апатиты,f0851e80-59d9-400b-b6d5-5f5f623bb29d,UTC+3,67.5677761,33.4067929,59690
"Мурманская обл, г Гаджиево",Северо-Западный,Мурманская,Гаджиево,b77147ce-b55e-4019-9aca-ed3872b9fbb0,UTC+3,69.2491311,33.315341,11089
"Мурманская обл, г Заозерск",Северо-Западный,Мурманская,Заозерск,81a88076-04de-46c9-940a-3cb300e70e5b,UTC+3,69.4003584,32.4501496,11206
"Мурманская обл, Печенгский р-н, г Заполярный",Северо-Западный,Мурманская,Заполярный,304cb068-e1d1-4947-944f-07c38cd8db6e,UTC+3,69.4132852,30.7984312,15835
"Мурманская обл, г Кандалакша",Северо-Западный,Мурманская,Кандалакша,30fa6bcc-608e-40cb-b22a-b202967ff2a6,UTC+3,67.1567974,32.4143218,35659
"Мурманская обл, г Кировск",Северо-Западный,Мурманская,Кировск,f658a2c0-1f7d-4423-9465-e55d3553bf86,UTC+3,67.6150424,33.663735,28659
"Мурманская обл, г Ковдор",Северо-Западный,Мурманская,Ковдор,01cc7377-a3a7-4793-9c77-52e3ef66a6ff,UTC+3,67.5661417,30.4741941,18836
"Мурманская обл, г Кола",Северо-Западный,Мурманская,Кола,866ace16-21ff-49c4-af8d-b74ef0e80208,UTC+3,68.8786028,33.0262299,10447
"Мурманская обл, г Мончегорск",Северо-Западный,Мурманская,Мончегорск,177e037d-a06d-4f8a-9333-fd534dd34c5d,UTC+3,67.9386153,32.9359719,45381
г Мурманск,Северо-Западный,Мурманская,Мурманск,b7127184-ead6-422b-b7cf-4fc7725b47a5,UTC+3,69.007721,33.0685865,307664
"Мурманская обл, г Оленегорск",Северо-Западный,Мурманская,Оленегорск,c5fe1817-5163-4e3b-b06a-36d322c6bf57,UTC+3,68.1422058,33.2669407,23079
"Мурманская обл, г Островной",Северо-Западный,Мурманская,Островной,0a358e8a-d3c4-45e5-b9fc-126092afd6f5,UTC+3,68.0510344,39.5077846,2177
"Мурманская обл, г Полярные Зори",Северо-Западный,Мурманская,Полярные Зори,d70b2917-8cea-4555-a9fe-6d2c72d8d9cc,UTC+3,67.373084,32.4975636,15106
"Мурманская обл, г Полярный",Северо-Западный,Мурманская,Полярный,a4ae6202-6ec6-4bc6-abc5-4ecd6ca96d53,UTC+3,69.1989583,33.4508591,17304
"Мурманская обл, г Североморск",Северо-Западный,Мурманская,Североморск,53e652bc-dd1b-44e1-9ab2-401b04cf3ceb,UTC+3,69.0766801,33.4177759,50076
"Мурманская обл, г Снежногорск",Северо-Западный,Мурманская,Снежногорск,22e4a0a6-68a6-47bc-a08c-11610ec6231a,UTC+3,69.1921409,33.2383502,12698
г Нарьян-Мар,Северо-Западный,Ненецкий,Нарьян-Мар,b0122c31-eb1c-40ae-b998-08f9e99a0fa1,UTC+3,67.6379672,53.0069565,21296
"Нижегородская обл, г Арзамас",Приволжский,Нижегородская,Арзамас,7e42f157-87d6-4111-a406-17432e814723,UTC+3,55.3945814,43.8408141,106367
"Нижегородская обл, г Балахна",Приволжский,Нижегородская,Балахна,275737a6-dee6-493b-82bb-ca5c3c97b24e,UTC+3,56.495036,43.5758423,51526
"Нижегородская обл, г Богородск",Приволжский,Нижегородская,Богородск,17962cbc-48c7-43d4-b174-c35485d114e7,UTC+3,56.1020828,43.5135442,25497
"Нижегородская обл, г Бор",Приволжский,Нижегородская,Бор,e736e903-6bc3-450b-b8af-7909213dc9ef,UTC+3,56.3565458,44.0646481,78079
"Нижегородская обл, г Ветлуга",Приволжский,Нижегородская,Ветлуга,aa1e00f2-a813-4f3d-b74a-9f9d73bfb1ff,UTC+3,57.8559204,45.7761957,8956
"Нижегородская обл, г Володарск",Приволжский,Нижегородская,Володарск,b92c9e2b-161d-4043-87ef-ed255529f7c6,UTC+3,56.2169751,43.1596417,9924
"Нижегородская обл, Павловский р-н, г Ворсма",Приволжский,Нижегородская,Ворсма,cd695c84-0b68-4d4c-8068-76e9bba1228a,UTC+3,55.989943,43.2718859,11622
"Нижегородская обл, г Выкса",Приволжский,Нижегородская,Выкса,d89942e8-e06b-46bd-a805-7cec8f77417e,UTC+3,55.3207727,42.1678834,56196
"Нижегородская обл, Павловский р-н, г Горбатов",Приволжский,Нижегородская,Горбатов,9e79f812-d4b6-48d6-97c3-aa94c102de3e,UTC+3,56.1307769,43.0626185,2278
"Нижегородская обл, г Городец",Приволжский,Нижегородская,Городец,a80ea6a8-87f3-4621-89bb-eeb16f56ef94,UTC+3,56.6449218,43.4723104,30699
"Нижегородская обл, г Дзержинск",Приволжский,Нижегородская,Дзержинск,1d5a97d5-9bdf-44c9-ac42-e201833e7f28,UTC+3,56.2376047,43.4599416,240762
"Нижегородская обл, Городецкий р-н, г Заволжье",Приволжский,Нижегородская,Заволжье,b1a903c2-9bdf-4a10-8e4b-e34d7b8d7dc3,UTC+3,56.6404286,43.3872492,40265
"Нижегородская обл, г Княгинино",Приволжский,Нижегородская,Княгинино,b3350a67-b3c0-47b2-afb3-2b308227a89e,UTC+3,55.8205915,45.032337,6708
"Нижегородская обл, г Кстово",Приволжский,Нижегородская,Кстово,8d72434a-977f-418b-80e0-f37ff75d52e4,UTC+3,56.1432084,44.1664198,66641
"Нижегородская обл, г Кулебаки",Приволжский,Нижегородская,Кулебаки,a963a64c-29cf-4342-bdc7-d998017aa4cd,UTC+3,55.4296181,42.5125538,35762
"Нижегородская обл, г Лукоянов",Приволжский,Нижегородская,Лукоянов,edc07c38-090b-4990-9484-af85752c484f,UTC+3,55.0326225,44.4933807,14949
"Нижегородская обл, г Лысково",Приволжский,Нижегородская,Лысково,978c4d8c-f724-43b1-aa95-0c1fc49dc6b7,UTC+3,56.0262359,45.035771,21882
"Нижегородская обл, г Навашино",Приволжский,Нижегородская,Навашино,87f58ce7-8bad-4b33-9654-907bbd18d36a,UTC+3,55.543811,42.1887089,16413
г Нижний Новгород,Приволжский,Нижегородская,Нижний Новгород,555e7d61-d9a7-4ba6-9770-6caa8198c483,UTC+3,56.3240627,44.0053913,1250615
"Нижегородская обл, г Павлово",Приволжский,Нижегородская,Павлово,169a49f5-e0ed-44ae-83f8-653e44685e15,UTC+3,55.9797564,43.0995042,60699
"Нижегородская обл, г Первомайск",Приволжский,Нижегородская,Первомайск,a72a0367-92a4-4ec3-9aa2-2397039a3d70,UTC+3,54.8675792,43.8013992,14567
"Нижегородская обл, г Перевоз",Приволжский,Нижегородская,Перевоз,e3ff7ef2-92b6-4ab7-b2ff-4d58cab73dbc,UTC+3,55.5967718,44.5448369,9201
"Нижегородская обл, г Саров",Приволжский,Нижегородская,Саров,be0210d1-1b58-49c1-8304-eb5ff5618fad,UTC+3,54.9228268,43.3448089,92073
"Нижегородская обл, г Семенов",Приволжский,Нижегородская,Семенов,dacc69b0-38df-462e-b346-26541cb9c0b8,UTC+3,56.7889794,44.4902885,24472
"Нижегородская обл, г Сергач",Приволжский,Нижегородская,Сергач,ef4d5a83-c574-48d9-86ec-386f18bec524,UTC+3,55.5201515,45.4813231,21387
"Нижегородская обл, г Урень",Приволжский,Нижегородская,Урень,0e7e2d6e-7217-4624-857a-67b2300c0952,UTC+3,57.4612572,45.7833293,12311
"Нижегородская обл, г Чкаловск",Приволжский,Нижегородская,Чкаловск,46659847-4fed-4981-bdaf-d260874864ee,UTC+3,56.7651262,43.242077,12371
"Нижегородская обл, г Шахунья",Приволжский,Нижегородская,Шахунья,a5d97e2a-acea-44c0-92d1-1f107fc472cd,UTC+3,57.6764293,46.6129009,21337
"Новгородская обл, г Боровичи",Северо-Западный,Новгородская,Боровичи,ae2f372e-7df2-400c-95f9-4b0522567634,UTC+3,58.3840197,33.9175929,54731
"Новгородская обл, г Валдай",Северо-Западный,Новгородская,Валдай,a9075bb6-f2b2-497f-86e1-fe3d9592c075,UTC+3,57.9823766,33.2369436,16099
г Великий Новгород,Северо-Западный,Новгородская,Великий Новгород,8d0a05bf-3b8a-43e9-ac26-7ce61d7c4560,UTC+3,58.5213846,31.2755394,218724
"Новгородская обл, г Малая Вишера",Северо-Западный,Новгородская,Малая Вишера,58fbfb62-6e1e-402d-8c8d-c8ec722f4a5a,UTC+3,58.8458379,32.2247401,12461
"Новгородская обл, г Окуловка",Северо-Западный,Новгородская,Окуловка,b9e66b8f-b027-4e77-8466-55ba3be0b42b,UTC+3,58.3910296,33.2901557,12464
"Новгородская обл, г Пестово",Северо-Западный,Новгородская,Пестово,4ad123c8-0130-4432-9d6c-e64946f2d647,UTC+3,58.5973723,35.8143898,15911
"Новгородская обл, г Сольцы",Северо-Западный,Новгородская,Сольцы,c2f4a34c-80b4-4aea-a45b-d932909cccc0,UTC+3,58.1201281,30.309351,10317
"Новгородская обл, г Старая Русса",Северо-Западный,Новгородская,Старая Русса,bc4e8fbc-54dc-4114-9c48-fd7a9b3e2e5c,UTC+3,57.990737,31.3554897,32235
"Новгородская обл, г Холм",Северо-Западный,Новгородская,Холм,b12ce6eb-00e8-4d54-b309-14569350f346,UTC+3,57.145108,31.1787499,3829
"Новгородская обл, г Чудово",Северо-Западный,Новгородская,Чудово,a084418b-c41f-4086-9009-0adb7e9117bf,UTC+3,59.1248394,31.6866241,16148
"Новосибирская обл, Барабинский р-н, г Барабинск",Сибирский,Новосибирская,Барабинск,0133a54d-617a-4682-8885-e22c85588be8,UTC+7,55.35146,78.3464506,30250
"Новосибирская обл, г Бердск",Сибирский,Новосибирская,Бердск,fd0191f4-4687-42d9-be64-4ebc7824bd08,UTC+7,54.7582156,83.1070605,98809
"Новосибирская обл, г Болотное",Сибирский,Новосибирская,Болотное,7e18e6d0-f7e1-4ada-a845-cc7ab5431a1a,UTC+7,55.6692421,84.3906889,16969
"Новосибирская обл, г Искитим",Сибирский,Новосибирская,Искитим,6965fcac-b7e4-4cab-ab35-a591ed65edf5,UTC+7,54.6267603,83.2951244,60072
"Новосибирская обл, г Карасук",Сибирский,Новосибирская,Карасук,23d59dbe-1aed-4564-84da-fe921f9ce294,UTC+7,53.7343189,78.0422967,28929
"Новосибирская обл, г Каргат",Сибирский,Новосибирская,Каргат,f3a2db25-007e-4830-b460-e763ced3a642,UTC+7,55.1945666,80.2829495,10620
"Новосибирская обл, Куйбышевский р-н, г Куйбышев",Сибирский,Новосибирская,Куйбышев,1b70e712-092e-4c45-9984-af3a2c7cfdd7,UTC+7,55.4685094,78.3242048,47278
"Новосибирская обл, г Купино",Сибирский,Новосибирская,Купино,b1467e32-e362-4e64-b5d7-0d7deba77505,UTC+7,54.366055,77.2973368,15448
г Новосибирск,Сибирский,Новосибирская,Новосибирск,8dea00e3-9aab-4d8e-887c-ef2aaa546456,UTC+7,55.028191,82.9211489,1498921
"Новосибирская обл, г Обь",Сибирский,Новосибирская,Обь,8571e389-8c43-4c36-afae-b532d078c928,UTC+7,54.9945576,82.6937181,26137
"Новосибирская обл, Татарский р-н, г Татарск",Сибирский,Новосибирская,Татарск,17f3169d-63c5-4c04-9395-298333f7e0f4,UTC+7,55.2146167,75.9739914,26114
"Новосибирская обл, г Тогучин",Сибирский,Новосибирская,Тогучин,579da04d-579c-4ef7-8f84-aa63088be55b,UTC+7,55.2251631,84.4104118,21531
"Новосибирская обл, г Черепаново",Сибирский,Новосибирская,Черепаново,e849dc37-0f3b-4a66-8f0e-780c75927025,UTC+7,54.2206476,83.3724521,19346
"Новосибирская обл, г Чулым",Сибирский,Новосибирская,Чулым,bd136162-7404-4915-b456-239426f78b94,UTC+7,55.0906867,80.9592508,11964
"Омская обл, г Исилькуль",Сибирский,Омская,Исилькуль,097baa31-3a80-4fea-b34b-c613fbd8730e,UTC+6,54.9096002,71.2816284,25905
"Омская обл, г Калачинск",Сибирский,Омская,Калачинск,fc59f020-5c8e-45e8-baf5-c9069a61e4a9,UTC+6,55.0598155,74.5653644,24000
"Омская обл, г Называевск",Сибирский,Омская,Называевск,db2e2372-fed9-426b-a861-e64e2201f225,UTC+6,55.5689323,71.3503426,12119
г Омск,Сибирский,Омская,Омск,140e31da-27bf-4519-9ea0-6185d681d44e,UTC+6,54.9848566,73.3674517,1154000
"Омская обл, г Тара",Сибирский,Омская,Тара,191443b9-a283-4368-a09d-0a98f16c7dc5,UTC+6,56.9160511,74.3649194,26664
"Омская обл, г Тюкалинск",Сибирский,Омская,Тюкалинск,10959db6-8297-49eb-93e9-2bb7641898ce,UTC+6,55.8703415,72.1954747,12050
"Оренбургская обл, г Абдулино",Приволжский,Оренбургская,Абдулино,5e796fe8-2870-4a24-a14a-5669ca0141e5,UTC+5,53.6778906,53.6472483,20663
"Оренбургская обл, г Бугуруслан",Приволжский,Оренбургская,Бугуруслан,680f6208-865b-43b4-ab24-1f42f51d2c33,UTC+5,53.6523728,52.4326853,52249
"Оренбургская обл, г Бузулук",Приволжский,Оренбургская,Бузулук,653b316e-d0ca-414e-9211-03a96643e91b,UTC+5,52.7881277,52.2624877,82816
"Оренбургская обл, г Гай",Приволжский,Оренбургская,Гай,c9a3cd9e-a133-4de9-aafb-a6e0b664312c,UTC+5,51.4649189,58.4436875,38302
"Оренбургская обл, г Кувандык",Приволжский,Оренбургская,Кувандык,7644221b-0ef9-40c3-8378-cb0e2299747e,UTC+5,51.4783857,57.3612636,26176
"Оренбургская обл, г Медногорск",Приволжский,Оренбургская,Медногорск,86204c33-b552-4ebd-a93a-9dc8b274ee9c,UTC+5,51.4037617,57.583163,27253
"Оренбургская обл, г Новотроицк",Приволжский,Оренбургская,Новотроицк,5cb431ac-6645-47b2-9716-5fccc9ec1d7f,UTC+5,51.1964202,58.3018192,97914
г Оренбург,Приволжский,Оренбургская,Оренбург,dce97bff-deb2-4fd9-9aec-4f4327bbf89b,UTC+5,51.7875092,55.1018828,570329
"Оренбургская обл, г Орск",Приволжский,Оренбургская,Орск,71e7cb45-f365-4e6b-b068-a7d35349c3ba,UTC+5,51.2294282,58.4752777,238006
"Оренбургская обл, г Соль-Илецк",Приволжский,Оренбургская,Соль-Илецк,d2d93864-f4a5-4ac2-b953-b230cc9d0fa0,UTC+5,51.1633736,54.9896726,26308
"Оренбургская обл, г Сорочинск",Приволжский,Оренбургская,Сорочинск,1d9296cc-f534-4e81-9e97-c31d3ef9c25a,UTC+5,52.426685,53.1542745,30136
"Оренбургская обл, г Ясный",Приволжский,Оренбургская,Ясный,c30ba5a3-1222-4fde-a8d0-ef2d8494e4c8,UTC+5,51.036838,59.874344,16082
"Орловская обл, г Болхов",Центральный,Орловская,Болхов,4393f437-1a48-4083-bed9-ad3382fdad16,UTC+3,53.4438496,36.0076833,11421
"Орловская обл, г Дмитровск",Центральный,Орловская,Дмитровск,25748825-cbac-4a45-b3d6-4770c3872478,UTC+3,52.5054851,35.1415009,5956
"Орловская обл, г Ливны",Центральный,Орловская,Ливны,aef2c735-2e21-42e5-8638-9667bade6a2b,UTC+3,52.4284558,37.6039506,50430
"Орловская обл, г Малоархангельск",Центральный,Орловская,Малоархангельск,2afa3f40-891a-4640-a1cf-af9a5a6d1eb7,UTC+3,52.4002192,36.5038579,3872
"Орловская обл, г Мценск",Центральный,Орловская,Мценск,76f2780b-0f1c-4818-98a4-13da5c8a2c80,UTC+3,53.2788438,36.5749105,43216
"Орловская обл, г Новосиль",Центральный,Орловская,Новосиль,5f17239d-7e83-4e7d-afcd-b94e451465c9,UTC+3,52.97454,37.0437146,3799
г Орёл,Центральный,Орловская,Орёл,2abed4d9-5565-4885-bc96-f4ffccc6cba4,UTC+3,52.9671298,36.0696427,317854
"Пензенская обл, г Белинский",Приволжский,Пензенская,Белинский,ea57fb75-444f-4f54-b89e-d66ac91774ba,UTC+3,52.9640996,43.4183212,8567
"Пензенская обл, г Городище",Приволжский,Пензенская,Городище,b9d45c36-c679-40bb-8168-7ab78913a2c7,UTC+3,53.2726916,45.7026142,8102
"Пензенская обл, г Заречный",Приволжский,Пензенская,Заречный,ff38fc0c-d739-4627-a2f4-58af8f3d9d42,UTC+3,53.1960836,45.1689907,63579
"Пензенская обл, г Каменка",Приволжский,Пензенская,Каменка,e5313349-e01d-47a2-b329-b1629c243520,UTC+3,53.1855463,44.0469717,39579
"Пензенская обл, г Кузнецк",Приволжский,Пензенская,Кузнецк,b4751488-e03d-416c-9cde-af7465256bfa,UTC+3,53.1130888,46.605092,88886
"Пензенская обл, г Нижний Ломов",Приволжский,Пензенская,Нижний Ломов,f852d3a4-5d39-4a1b-be4a-f20ca9c4e60c,UTC+3,53.5300905,43.6730217,22678
"Пензенская обл, г Никольск",Приволжский,Пензенская,Никольск,6e26041a-db1c-4f41-93f1-f056ab0b70ef,UTC+3,53.7137496,46.0799857,22471
г Пенза,Приволжский,Пензенская,Пенза,ff3292b1-a1d2-47d4-b35b-ac06b50555cc,UTC+3,53.1753314,45.0348625,519592
"Пензенская обл, г Сердобск",Приволжский,Пензенская,Сердобск,20c2c219-f4a8-4d07-93c9-72bd6766c0b6,UTC+3,52.4697595,44.2122414,35393
"Пензенская обл, г Спасск",Приволжский,Пензенская,Спасск,d005a0db-1deb-4728-a800-1e423fa804df,UTC+3,53.9271974,43.1859073,7442
"Пензенская обл, Городищенский р-н, г Сурск",Приволжский,Пензенская,Сурск,d8f506c4-a1e4-4524-b997-8651cb6f0af0,UTC+3,53.0761357,45.6910796,7032
"Пермский край, г Александровск",Приволжский,Пермский,Александровск,4f07ade1-1415-44c8-bed9-e851f1ef558d,UTC+5,59.1613221,57.5763459,15022
"Пермский край, г Березники",Приволжский,Пермский,Березники,4ffcde97-05e9-4a6e-bd51-3a984b41b7bd,UTC+5,59.4079923,56.8039427,156350
"Пермский край, г Верещагино",Приволжский,Пермский,Верещагино,9bd0970e-7fbb-4a64-a625-af7670526dba,UTC+5,58.0797571,54.6581309,22760
"Пермский край, г Горнозаводск",Приволжский,Пермский,Горнозаводск,17644b43-80ff-4dea-b823-3b9dbf9e9ef0,UTC+5,58.3742532,58.3231716,12334
"Пермский край, г Гремячинск",Приволжский,Пермский,Гремячинск,edeaf203-1bc3-4fe1-b3ed-15eb89978783,UTC+5,58.5626082,57.8520572,11005
"Пермский край, г Губаха",Приволжский,Пермский,Губаха,1dc365d3-60b1-41ea-a3b3-1c599024cf30,UTC+5,58.8371721,57.554533,27544
"Пермский край, г Добрянка",Приволжский,Пермский,Добрянка,230c2f4d-fd9d-46fc-8bbd-b8de26810790,UTC+5,58.469685,56.4130737,35720
"Пермский край, г Кизел",Приволжский,Пермский,Кизел,cc8b9eb5-bd4e-4472-8314-f889e8a6679c,UTC+5,59.0512783,57.6471028,20277
"Пермский край, г Красновишерск",Приволжский,Пермский,Красновишерск,f42f49ba-d949-4245-843a-6ec5203d2fcd,UTC+5,60.3901321,57.0535682,17129
"Пермский край, г Краснокамск",Приволжский,Пермский,Краснокамск,22ac4485-bdf3-422e-b67f-9b3aba46de5e,UTC+5,58.0822065,55.7479936,52632
"Пермский край, г Кудымкар",Приволжский,Пермский,Кудымкар,d36590ad-0286-44a2-876d-7732deee4234,UTC+5,59.0167925,54.6572508,30711
"Пермский край, г Кунгур",Приволжский,Пермский,Кунгур,73e5113d-949a-4a9e-8e44-6eae9ef93747,UTC+5,57.4283296,56.9438656,67857
"Пермский край, г Лысьва",Приволжский,Пермский,Лысьва,5d7c95a5-a4d7-4fb4-9774-93e527636a9e,UTC+5,58.0995875,57.8086825,67712
"Пермский край, г Нытва",Приволжский,Пермский,Нытва,a49957ba-7860-484f-bf7a-abbbe1d76bab,UTC+5,57.9336725,55.3356084,19041
"Пермский край, г Оса",Приволжский,Пермский,Оса,18e7b084-c83f-40bf-9378-d26628528a19,UTC+5,57.2889515,55.4688668,22420
"Пермский край, г Оханск",Приволжский,Пермский,Оханск,48159476-c6db-4258-a0bc-f8ee52e7aef6,UTC+5,57.7180034,55.3872469,7597
"Пермский край, г Очер",Приволжский,Пермский,Очер,6a9b1a8a-5da1-470c-a03a-ecbb3cee0ee9,UTC+5,57.8852686,54.7161091,15003
г Пермь,Приволжский,Пермский,Пермь,a309e4ce-2f36-4106-b1ca-53e0f48a6d95,UTC+5,58.0102583,56.2342034,1000679
"Пермский край, г Соликамск",Приволжский,Пермский,Соликамск,8b698775-fe5e-4fc0-9f0d-272855d82d15,UTC+5,59.6482998,56.771009,97239
"Пермский край, г Усолье",Приволжский,Пермский,Усолье,9acef094-749b-406f-89a2-98c02ebf50c5,UTC+5,59.4277573,56.6837872,5694
"Пермский край, г Чайковский",Приволжский,Пермский,Чайковский,06d7a6d6-8f57-4e5a-b698-2bc44c92bb84,UTC+5,56.7781501,54.1477965,82933
"Пермский край, г Чердынь",Приволжский,Пермский,Чердынь,242133ad-1c0f-43f0-9865-7b5f914a778f,UTC+5,60.4011933,56.4799933,4920
"Пермский край, Ильинский р-н, г Чермоз",Приволжский,Пермский,Чермоз,8f353d4e-1374-4a88-a06b-51c6a3f9acd1,UTC+5,58.7842834,56.1507138,4017
"Пермский край, г Чернушка",Приволжский,Пермский,Чернушка,c3a35399-c5ea-4f12-bf34-c2cc21e1cc60,UTC+5,56.5160768,56.0763049,33275
"Пермский край, г Чусовой",Приволжский,Пермский,Чусовой,784b1911-182d-476b-a4ad-0f3fa1ef7777,UTC+5,58.2974596,57.8193615,46740
"Приморский край, г Арсеньев",Дальневосточный,Приморский,Арсеньев,36e4c7ce-7320-48ee-8320-0587c1e09917,UTC+10,44.1622031,133.2696209,56742
"Приморский край, г Артем",Дальневосточный,Приморский,Артем,3ce80b09-9b72-4e68-9b2d-becaaee4570e,UTC+10,43.3501675,132.1596175,102636
"Приморский край, г Большой Камень",Дальневосточный,Приморский,Большой Камень,1315186b-9ae8-4f92-b3a5-1db055c15358,UTC+10,43.1111742,132.3480082,39257
г Владивосток,Дальневосточный,Приморский,Владивосток,7b6de6a5-86d0-4735-b11a-499081111af8,UTC+10,43.1164904,131.8823937,592069
"Приморский край, г Дальнегорск",Дальневосточный,Приморский,Дальнегорск,b2a863e2-37be-4858-b65e-0babc3872052,UTC+10,44.5539457,135.5662716,37503
"Приморский край, г Дальнереченск",Дальневосточный,Приморский,Дальнереченск,e6e6c2b1-20cf-47a7-9a4b-39e8a96cc5c8,UTC+10,45.9308483,133.7316907,27601
"Приморский край, г Лесозаводск",Дальневосточный,Приморский,Лесозаводск,71b4cdae-5e53-4406-a418-1e8b5c17dc2e,UTC+10,45.4780092,133.4186199,36975
"Приморский край, г Находка",Дальневосточный,Приморский,Находка,225a3506-35aa-4456-8bd7-244bdfbc4eaf,UTC+10,42.8239372,132.8927361,159695
"Приморский край, г Партизанск",Дальневосточный,Приморский,Партизанск,b62edf86-4257-4e80-ade6-857529bd1b1e,UTC+10,43.1280578,133.1264567,38648
"Приморский край, г Спасск-Дальний",Дальневосточный,Приморский,Спасск-Дальний,e55554eb-c571-49d2-bf69-c3c4acf8b10b,UTC+10,44.5901175,132.8157288,44166
"Приморский край, г Уссурийск",Дальневосточный,Приморский,Уссурийск,de7335fb-9baa-48eb-927d-0bb299b2e5bc,UTC+10,43.7971818,131.9518229,157946
"Приморский край, г Фокино",Дальневосточный,Приморский,Фокино,fdb16823-586f-43d2-a1b4-b1c7c7f00bcd,UTC+10,42.9706317,132.4110196,23683
"Псковская обл, г Великие Луки",Северо-Западный,Псковская,Великие Луки,ca091eae-2c39-4730-b57d-b2fa570f71cb,UTC+3,56.332208,30.5508641,98778
"Псковская обл, г Гдов",Северо-Западный,Псковская,Гдов,cdbe4f8f-1a44-4c99-a3c8-06b501a3ad2e,UTC+3,58.7432429,27.8264809,4379
"Псковская обл, г Дно",Северо-Западный,Псковская,Дно,31e4b2e4-ae67-43db-82ea-8728cd5a71c7,UTC+3,57.826974,29.9629389,9061
"Псковская обл, г Невель",Северо-Западный,Псковская,Невель,6570fdb6-7602-477e-a783-f186456dabfe,UTC+3,56.0201973,29.9239983,16324
"Псковская обл, г Новоржев",Северо-Западный,Псковская,Новоржев,236c48ca-48c9-471f-8891-0b73ea89bc2b,UTC+3,57.029807,29.3433083,3695
"Псковская обл, г Новосокольники",Северо-Западный,Псковская,Новосокольники,af8fb4a0-5d4e-4e0e-94fc-20021da2f67a,UTC+3,56.3408431,30.1527573,8119
"Псковская обл, г Опочка",Северо-Западный,Псковская,Опочка,59c2f176-3b63-4086-bc6c-efa246c64a1e,UTC+3,56.710725,28.6717519,11601
"Псковская обл, г Остров",Северо-Западный,Псковская,Остров,67d379ab-16ac-40d0-95c0-f5f1cbeb578d,UTC+3,57.3451528,28.3437593,21670
"Псковская обл, г Печоры",Северо-Западный,Псковская,Печоры,8cb44bcc-4e46-409a-972a-b99a59fcc7e9,UTC+3,57.8145817,27.622259,12308
"Псковская обл, г Порхов",Северо-Западный,Псковская,Порхов,c02d55c3-2086-400f-81b7-f1f540f31a87,UTC+3,57.7765219,29.5436626,10608
г Псков,Северо-Западный,Псковская,Псков,2858811e-448a-482e-9863-e03bf06bb5d4,UTC+3,57.8194415,28.3317198,203974
"Псковская обл, г Пустошка",Северо-Западный,Псковская,Пустошка,28a7a368-16ab-4ffc-9b3e-4a4c3e16bf74,UTC+3,56.3374813,29.3668055,4619
"Псковская обл, г Пыталово",Северо-Западный,Псковская,Пыталово,8cfcdc08-f726-4aff-abfa-b20199b32172,UTC+3,57.0637952,27.9236214,5826
