city,region,address,population,timezone,geo_lat,geo_lon,fias_id
Белогорск,Амурская,"Амурская обл, г Белогорск",68220,UTC+9,50.9213415,128.4739471,c528e99b-7e81-4290-9cda-8713884472a5
Благовещенск,Амурская,г Благовещенск,214397,UTC+9,50.290659,127.527198,8f41253d-6e3b-48a9-842a-25ba894bd093
Завитинск,Амурская,"Амурская обл, г Завитинск",11481,UTC+9,50.1064111,129.4391813,7b39476f-0edb-4bc3-bb31-6cedfb2aa695
Зея,Амурская,"Амурская обл, г Зея",25042,UTC+9,53.7340088,127.265787,581855f4-f0bc-44a5-a36e-a298279f9ec4
Райчихинск,Амурская,"Амурская обл, г Райчихинск",20499,UTC+9,49.7941615,129.4112492,981b5f3a-f0b6-444f-a6fb-c2bc10804b31
Свободный,Амурская,"Амурская обл, г Свободный",58594,UTC+9,51.3614103,128.1219729,dd560dfa-3feb-48e2-aa3b-b71213e7441e
Сковородино,Амурская,"Амурская обл, г Сковородино",9561,UTC+9,53.9871095,123.9437205,260c545f-883c-440a-852c-c39a65fe4104
Тында,Амурская,"Амурская обл, г Тында",35574,UTC+9,55.1546441,124.7468904,007e010f-e110-4a55-90a7-c4acac623c9b
Циолковский,Амурская,"Амурская обл, г Циолковский",6208,UTC+9,51.762481,128.1219846,f9ce3255-3f79-4457-919c-d180fa813b6a
Шимановск,Амурская,"Амурская обл, г Шимановск",19815,UTC+9,52.0051886,127.7005458,809f0591-bb18-40a2-9fac-7d3d0a22c0bf
Бабушкин,Бурятия,"Респ Бурятия, Кабанский р-н, г Бабушкин",4542,UTC+8,51.7112755,105.8673219,519731a7-aace-435a-9a1c-1d0051ab7913
Гусиноозерск,Бурятия,"Респ Бурятия, г Гусиноозерск",23280,UTC+8,51.2865048,106.5230319,30e1ab6c-4ee2-45ce-934a-c3435a015c29
Закаменск,Бурятия,"Респ Бурятия, г Закаменск",11249,UTC+8,50.372713,103.286699,0602f259-5de5-48e0-8a2c-427a5e0aef82
Кяхта,Бурятия,"Респ Бурятия, г Кяхта",20013,UTC+8,50.346543,106.4533516,5ef858d8-f7e6-4ea9-8276-53a25672bf9f
Северобайкальск,Бурятия,"Респ Бурятия, г Северобайкальск",23673,UTC+8,55.635614,109.3361505,c4ea4370-0720-40a3-9df6-dd8ccf354d15
Улан-Удэ,Бурятия,г Улан-Удэ,431922,UTC+8,51.8335853,107.5842223,9fdcc25f-a3d0-4f28-8b61-40648d099065
Биробиджан,Еврейская,г Биробиджан,75419,UTC+10,48.7946446,132.9217207,5d133391-46ee-496b-83a6-efeeaa903643
Облучье,Еврейская,"Еврейская Аобл, г Облучье",9379,UTC+10,49.0189345,131.0540102,b60c1e9f-9355-47ef-b5a3-82906d074bd4
Балей,Забайкальский,"Забайкальский край, г Балей",12536,UTC+9,51.5823759,116.6379549,29a51a64-5ca3-4cc6-87ff-9cdfcc17642e
Борзя,Забайкальский,"Забайкальский край, г Борзя",31376,UTC+9,50.3876058,116.5234779,d4b135b9-4504-4bae-8585-da058d350f58
Краснокаменск,Забайкальский,"Забайкальский край, г Краснокаменск",55668,UTC+9,50.0929703,118.0323936,3c9d5e9e-2922-4e9e-9e49-dbe6faf01fb2
Могоча,Забайкальский,"Забайкальский край, г Могоча",13228,UTC+9,53.7361398,119.7660867,29eb6b99-27ad-493c-9fd1-a83fe8acdf24
Нерчинск,Забайкальский,"Забайкальский край, г Нерчинск",14976,UTC+9,51.9594977,116.5852383,ba325548-ac92-4a21-904b-bb535e5fe249
Петровск-Забайкальский,Забайкальский,"Забайкальский край, г Петровск-Забайкальский",18555,UTC+9,51.2748592,108.846681,b26bb2c1-f79b-4c97-9d2d-e73790cfe622
Сретенск,Забайкальский,"Забайкальский край, г Сретенск",6850,UTC+9,52.2461454,117.7117842,f9dd7993-4953-4980-bbcc-2666b94b2a06
Хилок,Забайкальский,"Забайкальский край, г Хилок",11530,UTC+9,51.3634856,110.4590898,a4b18a69-c5df-4022-ba9b-a29f99acfa42
Чита,Забайкальский,г Чита,323964,UTC+9,52.0340142,113.4994,2d9abaa6-85a6-4f1f-a1bd-14b76ec17d9c
Шилка,Забайкальский,"Забайкальский край, г Шилка",13947,UTC+9,51.8497035,116.0334461,69efa85f-c9d7-44bb-bcda-95205cd1a647
Вилючинск,Камчатский,"Камчатский край, г Вилючинск",22905,UTC+12,52.9302415,158.4057632,b75a9701-5cd4-4623-99d5-4fa7463ceb47
Елизово,Камчатский,"Камчатский край, г Елизово",39548,UTC+12,53.1830375,158.3883548,3da129ee-9b72-45ec-bef9-07b69e1eed4e
Петропавловск-Камчатский,Камчатский,г Петропавловск-Камчатский,179526,UTC+12,53.036908,158.6559254,0b3f0723-5fe0-4c23-af44-8082166c6d2e
Магадан,Магаданская,г Магадан,95925,UTC+11,59.5681332,150.8084956,cb8ae35a-93df-4133-b377-50f3698c8b5e
Сусуман,Магаданская,"Магаданская обл, г Сусуман",5865,UTC+11,62.7805882,148.1540281,b617d714-cbce-4abe-bf0d-668be5e3d670
Арсеньев,Приморский,"Приморский край, г Арсеньев",56742,UTC+10,44.1622031,133.2696209,36e4c7ce-7320-48ee-8320-0587c1e09917
Артем,Приморский,"Приморский край, г Артем",102636,UTC+10,43.3501675,132.1596175,3ce80b09-9b72-4e68-9b2d-becaaee4570e
Большой Камень,Приморский,"Приморский край, г Большой Камень",39257,UTC+10,43.1111742,132.3480082,1315186b-9ae8-4f92-b3a5-1db055c15358
Владивосток,Приморский,г Владивосток,592069,UTC+10,43.1164904,131.8823937,7b6de6a5-86d0-4735-b11a-499081111af8
Дальнегорск,Приморский,"Приморский край, г Дальнегорск",37503,UTC+10,44.5539457,135.5662716,b2a863e2-37be-4858-b65e-0babc3872052
Дальнереченск,Приморский,"Приморский край, г Дальнереченск",27601,UTC+10,45.9308483,133.7316907,e6e6c2b1-20cf-47a7-9a4b-39e8a96cc5c8
Лесозаводск,Приморский,"Приморский край, г Лесозаводск",36975,UTC+10,45.4780092,133.4186199,71b4cdae-5e53-4406-a418-1e8b5c17dc2e
Находка,Приморский,"Приморский край, г Находка",159695,UTC+10,42.8239372,132.8927361,225a3506-35aa-4456-8bd7-244bdfbc4eaf
Партизанск,Приморский,"Приморский край, г Партизанск",38648,UTC+10,43.1280578,133.1264567,b62edf86-4257-4e80-ade6-857529bd1b1e
Спасск-Дальний,Приморский,"Приморский край, г Спасск-Дальний",44166,UTC+10,44.5901175,132.8157288,e55554eb-c571-49d2-bf69-c3c4acf8b10b
Уссурийск,Приморский,"Приморский край, г Уссурийск",157946,UTC+10,43.7971818,131.9518229,de7335fb-9baa-48eb-927d-0bb299b2e5bc
Фокино,Приморский,"Приморский край, г Фокино",23683,UTC+10,42.9706317,132.4110196,fdb16823-586f-43d2-a1b4-b1c7c7f00bcd
Александровск-Сахалинский,Сахалинская,"Сахалинская обл, г Александровск-Сахалинский",10613,UTC+11,50.8974378,142.1578559,b56de39f-87a4-4c5c-a2b1-9ccb64039774
Анива,Сахалинская,"Сахалинская обл, г Анива",8449,UTC+11,46.713152,142.5265804,7e2a1112-2976-44b8-94a1-c0af2bad7d38
Долинск,Сахалинская,"Сахалинская обл, г Долинск",12200,UTC+11,47.3255783,142.7945071,d1e3874e-1b89-4000-b63e-2a0428adbcd8
Корсаков,Сахалинская,"Сахалинская обл, г Корсаков",33526,UTC+11,46.6324545,142.799445,ba09681d-27a6-4784-8369-fa13da3057bf
Курильск,Сахалинская,"Сахалинская обл, г Курильск",2070,UTC+11,45.2270954,147.8796323,1e3fbbb8-0c90-4a49-a012-9d5813f4f032
Макаров,Сахалинская,"Сахалинская обл, г Макаров",6788,UTC+11,48.6236334,142.7803205,eeb17cd3-ea24-4d58-bd46-ad6c333d3de7
Невельск,Сахалинская,"Сахалинская обл, г Невельск",11682,UTC+11,46.6526899,141.8630725,2bdeaf4a-cbcc-497f-b558-3efc68434d76
Оха,Сахалинская,"Сахалинская обл, г Оха",23007,UTC+11,53.5867839,142.9412411,273e561f-aa3b-4057-9225-862563c93287
Поронайск,Сахалинская,"Сахалинская обл, г Поронайск",16461,UTC+11,49.238866,143.1008333,10e40296-e5b1-4688-83d5-838eac25ae72
Северо-Курильск,Сахалинская,"Сахалинская обл, г Северо-Курильск",2381,UTC+11,50.6730577,156.1282211,156ed642-9a53-4830-bec3-88f5e6dedd69
Томари,Сахалинская,"Сахалинская обл, г Томари",4537,UTC+11,47.7620108,142.0615837,06eb791a-25e9-4b8e-aaba-4a845b7394db
Углегорск,Сахалинская,"Сахалинская обл, г Углегорск",11880,UTC+11,49.0815774,142.0692639,c3da66fb-eb91-47c6-934c-b98ed003c82e
Холмск,Сахалинская,"Сахалинская обл, г Холмск",30936,UTC+11,47.0408423,142.041688,0d5fd8b6-9e5e-44e1-a341-fff1c3c9e1e0
Южно-Сахалинск,Сахалинская,г Южно-Сахалинск,181727,UTC+11,46.9591631,142.737976,44388ad0-06aa-49b0-bbf9-1704629d1d68
Амурск,Хабаровский,"Хабаровский край, г Амурск",42977,UTC+10,50.2344147,136.8792444,d3c4b43d-3e19-4454-939b-d92ef3d6c875
Бикин,Хабаровский,"Хабаровский край, г Бикин",17156,UTC+10,46.8185743,134.2550718,70dc89f8-f067-482a-bd50-4fb2782463e7
Вяземский,Хабаровский,"Хабаровский край, г Вяземский",14556,UTC+10,47.5353379,134.7553856,6dbd1c8b-7c73-4ff7-9cbd-7062ac0cc88d
Комсомольск-на-Амуре,Хабаровский,"Хабаровский край, г Комсомольск-на-Амуре",263906,UTC+10,50.5498936,137.0079408,a29c5b20-5056-412b-9af6-7b805aa3ea72
Николаевск-на-Амуре,Хабаровский,"Хабаровский край, г Николаевск-на-Амуре",22773,UTC+10,53.1460657,140.7111367,7a58fb7c-6d03-46e4-b5fc-3f5b587c09be
Советская Гавань,Хабаровский,"Хабаровский край, г Советская Гавань",27712,UTC+10,48.9664966,140.285174,64f0ebe7-00e4-40a0-9dd9-15f9293632ae
Хабаровск,Хабаровский,г Хабаровск,577668,UTC+10,48.4647258,135.0598942,a4859da8-9977-4b62-8436-4e1b98c5d13f
Анадырь,Чукотский,г Анадырь,13053,UTC+12,64.7313924,177.5015421,7fad3a21-06b4-4af3-9657-bf1521714952
Билибино,Чукотский,"Чукотский АО, г Билибино",5504,UTC+12,68.0584191,166.4388172,c012d402-217c-488a-85f3-52b3312ddab6
Певек,Чукотский,"Чукотский АО, г Певек",4161,UTC+12,69.7016661,170.2999022,e8a6aabb-9ea3-4862-9bf7-4b35460e98a4
Алдан,Саха /Якутия/,"Респ Саха /Якутия/, г Алдан",21277,UTC+9,58.6094283,125.3817188,29a64605-5441-48c5-bc08-117a72ebc843
Верхоянск,Саха /Якутия/,"Респ Саха /Якутия/, у Верхоянский, г Верхоянск",1311,UTC+10,67.5502451,133.390735,86a078da-13f2-4c47-989a-cce0384a60d3
Вилюйск,Саха /Якутия/,"Респ Саха /Якутия/, г Вилюйск",10233,UTC+9,63.7517616,121.627284,52297f9a-df7f-4d97-9260-342aed1f0718
Ленск,Саха /Якутия/,"Респ Саха /Якутия/, г Ленск",24955,UTC+9,60.7276196,114.9548255,fdb008ca-3f90-478f-988f-8ec51fc5cc26
Мирный,Саха /Якутия/,"Респ Саха /Якутия/, г Мирный",37179,UTC+9,62.536232,113.9667728,62d403af-d460-4e79-a90b-8b6a351af3b1
Нерюнгри,Саха /Якутия/,"Респ Саха /Якутия/, г Нерюнгри",61746,UTC+9,56.6599953,124.7202403,6ece5c38-f802-4f32-ad33-0409538c3562
Нюрба,Саха /Якутия/,"Респ Саха /Якутия/, г Нюрба",10156,UTC+9,63.2828955,118.3242437,5749064c-e95a-4a2c-a274-9aba7b066003
Олекминск,Саха /Якутия/,"Респ Саха /Якутия/, г Олекминск",9487,UTC+9,60.3758006,120.4060878,c3aba7f3-caf7-443f-a906-8d79e6ec37f6
Покровск,Саха /Якутия/,"Респ Саха /Якутия/, г Покровск",9495,UTC+9,61.4843503,129.1482392,fbe75414-a226-41f0-916b-de889d2c84c8
Среднеколымск,Саха /Якутия/,"Респ Саха /Якутия/, г Среднеколымск",3525,UTC+11,67.4582218,153.7069425,42bf7165-9170-403c-bf86-ca1c19453e1c
Томмот,Саха /Якутия/,"Респ Саха /Якутия/, у Алданский, г Томмот",8054,UTC+9,58.9586859,126.2875462,ddf06654-8540-4b55-9a08-45497cc29a75
Удачный,Саха /Якутия/,"Респ Саха /Якутия/, у Мирнинский, г Удачный",12611,UTC+9,66.4071765,112.3061555,e6fde0e4-6124-4e8d-82ce-5f97abe86cc6
Якутск,Саха /Якутия/,г Якутск,269486,UTC+9,62.0281405,129.7325887,884c84a2-0141-4652-962d-8a92989b88f7
Агидель,Башкортостан,"Респ Башкортостан, г Агидель",16365,UTC+5,55.8999056,53.9220144,8294b97c-7553-499e-8369-821d6eb0fdc7
Баймак,Башкортостан,"Респ Башкортостан, г Баймак",17710,UTC+5,52.5912896,58.3110998,874d4c58-31cd-4309-80db-8f14863efdbb
Белебей,Башкортостан,"Респ Башкортостан, г Белебей",60183,UTC+5,54.1034582,54.1113129,11e85c3e-c276-43b3-94e8-6b7f6cde5ac1
Белорецк,Башкортостан,"Респ Башкортостан, г Белорецк",68804,UTC+5,53.9676488,58.4100419,dd65b1de-c076-4126-9b56-c4b4979e2b0f
Бирск,Башкортостан,"Респ Башкортостан, г Бирск",41637,UTC+5,55.4155753,55.5582214,8c049a5c-f080-4052-93a9-89decf401900
Благовещенск,Башкортостан,"Респ Башкортостан, г Благовещенск",34246,UTC+5,55.0499867,55.9553186,da7ef573-cdbe-458e-a790-b29ad3a3d140
Давлеканово,Башкортостан,"Респ Башкортостан, г Давлеканово",24040,UTC+5,54.2226707,55.0312373,d820f602-8763-4f63-be89-10077a2f025b
Дюртюли,Башкортостан,"Респ Башкортостан, г Дюртюли",31272,UTC+5,55.4848318,54.8524765,d4ac608f-5096-4529-bab2-68a26c64272e
Ишимбай,Башкортостан,"Респ Башкортостан, г Ишимбай",66259,UTC+5,53.4545764,56.0438751,b3d2e10f-752d-4b90-b54b-9d6545f38ae0
Кумертау,Башкортостан,"Респ Башкортостан, г Кумертау",62854,UTC+5,52.7564939,55.7970197,48e38991-07fd-4aaa-b240-a7280e4a823f
Межгорье,Башкортостан,"Респ Башкортостан, г Межгорье",17353,UTC+5,54.2397689,57.9614547,5fd3a551-8553-4571-bfc8-2bfb211686f5
Мелеуз,Башкортостан,"Респ Башкортостан, г Мелеуз",61408,UTC+5,52.9589532,55.9282838,c516337d-f590-439b-83ad-6f15a9325740
Нефтекамск,Башкортостан,"Респ Башкортостан, г Нефтекамск",121757,UTC+5,56.088377,54.2483061,2c9997d2-ce94-431a-96c9-722d2238d5c8
Октябрьский,Башкортостан,"Респ Башкортостан, г Октябрьский",109379,UTC+5,54.4815311,53.4655972,abd1bc35-ec51-437a-abee-76a4f620f662
Салават,Башкортостан,"Респ Башкортостан, г Салават",156085,UTC+5,53.3616974,55.9245224,fc14353f-5a1d-4f22-94ea-b900bad9a9f1
Сибай,Башкортостан,"Респ Башкортостан, г Сибай",62732,UTC+5,52.7204651,58.6663783,d7825646-76f7-4322-a88c-42cc90cbd2b2
Стерлитамак,Башкортостан,"Респ Башкортостан, г Стерлитамак",273432,UTC+5,53.6300864,55.9317089,84e0b23d-82fe-40a8-8739-55e679780dc3
Туймазы,Башкортостан,"Респ Башкортостан, г Туймазы",66849,UTC+5,54.5999224,53.6950623,511a0136-f60c-451b-a2eb-3402103f1223
Уфа,Башкортостан,г Уфа,1062300,UTC+5,54.734944,55.9578468,7339e834-2cb4-4734-a4c7-1fca2c66e562
Учалы,Башкортостан,"Респ Башкортостан, г Учалы",37771,UTC+5,54.3067375,59.4125461,7b2b052a-49df-4aff-a36f-fb82957da2ea
Янаул,Башкортостан,"Респ Башкортостан, г Янаул",26988,UTC+5,56.2650146,54.929907,21de303b-205d-4d37-81c9-63d10246e1af
Белая Холуница,Кировская,"Кировская обл, г Белая Холуница",11232,UTC+3,58.8415239,50.8460699,49e2b1b5-771f-4dfd-9428-e74cd055d113
Вятские Поляны,Кировская,"Кировская обл, г Вятские Поляны",35159,UTC+3,56.2284817,51.0614855,7ad714c1-1136-4c39-84c1-17e15dbc5aab
Зуевка,Кировская,"Кировская обл, г Зуевка",11198,UTC+3,58.4032152,51.1331606,fe3dfa87-0363-4fbf-9a2c-dcfb237f6943
Киров,Кировская,г Киров,473668,UTC+3,58.6035264,49.6679304,452a2ddf-88a1-4e35-8d8d-8635493768d4
Кирово-Чепецк,Кировская,"Кировская обл, г Кирово-Чепецк",80920,UTC+3,58.5559424,50.0316848,3cdc251a-a649-4063-8c51-00ea2f676a95
Кирс,Кировская,"Кировская обл, г Кирс",10420,UTC+3,59.340056,52.2414437,31ed73ca-6927-4243-9618-36de284ab038
Котельнич,Кировская,"Кировская обл, г Котельнич",24979,UTC+3,58.3034832,48.3475597,49846fff-046e-4cee-944b-137cb833d67f
Луза,Кировская,"Кировская обл, г Луза",11262,UTC+3,60.6290609,47.2612445,9e22dc47-e0df-407b-8448-39ca682e3fd6
Малмыж,Кировская,"Кировская обл, г Малмыж",8265,UTC+3,56.5243844,50.6782739,2193594d-ddaf-42b6-9dfe-95cda00ba520
Мураши,Кировская,"Кировская обл, г Мураши",6752,UTC+3,59.3955383,48.9638417,20b2bc28-9404-4c1d-9e50-783338c1ea3c
Нолинск,Кировская,"Кировская обл, г Нолинск",9556,UTC+3,57.5597284,49.93575,03e15a08-649a-44f9-93fb-0be35ce2fb5f
Омутнинск,Кировская,"Кировская обл, г Омутнинск",23618,UTC+3,58.6698913,52.1894564,9039bbb5-93a8-4172-b97c-af2b9abbb614
Орлов,Кировская,"Кировская обл, г Орлов",6959,UTC+3,58.5389776,48.8927723,0302ec51-eea9-4343-9248-ce4878ca465e
Слободской,Кировская,"Кировская обл, г Слободской",33983,UTC+3,58.7311574,50.1669249,8effba3d-4f82-45f6-938a-f1eac4405623
Советск,Кировская,"Кировская обл, г Советск",16592,UTC+3,57.584196,48.9590272,2fa0734f-2b29-49d5-862f-29f15d88a402
Сосновка,Кировская,"Кировская обл, Вятскополянский р-н, г Сосновка",11960,UTC+3,56.2532741,51.2833642,9e9afbb6-8de5-4765-a69f-2c4dfa498006
Уржум,Кировская,"Кировская обл, г Уржум",10213,UTC+3,57.1097477,50.0058097,759037c3-6408-4466-afe4-b10adc4edff4
Яранск,Кировская,"Кировская обл, г Яранск",17252,UTC+3,57.3040326,47.8478737,af4098b9-6200-450a-999f-6e732cbdbac3
Волжск,Марий Эл,"Респ Марий Эл, г Волжск",55671,UTC+3,55.8623156,48.3715083,f183b079-b65f-4781-9b79-310ba29b724d
Звенигово,Марий Эл,"Респ Марий Эл, г Звенигово",11945,UTC+3,55.9738571,48.0170245,a9999751-53ff-4b43-b15f-6ad8034705ba
Йошкар-Ола,Марий Эл,г Йошкар-Ола,248688,UTC+3,56.6343662,47.8999706,0648e41c-a09b-4eac-91cd-8cf61b9ccb7b
Козьмодемьянск,Марий Эл,"Респ Марий Эл, г Козьмодемьянск",21262,UTC+3,56.3334036,46.546675,70f9ed24-8b25-4688-857f-a337710d4825
Ардатов,Мордовия,"Респ Мордовия, г Ардатов",9400,UTC+3,54.8465544,46.2411232,edab359e-50ac-422a-9117-78ce44b6f758
Инсар,Мордовия,"Респ Мордовия, г Инсар",8687,UTC+3,53.8770022,44.3696566,e5473064-cb2e-4da5-aa2b-42599c031705
Ковылкино,Мордовия,"Респ Мордовия, г Ковылкино",21307,UTC+3,54.0391072,43.9191539,53445e0f-9d61-4359-9f4f-4983ff7aec34
Краснослободск,Мордовия,"Респ Мордовия, г Краснослободск",10151,UTC+3,54.4248207,43.7845011,870f93e7-2c41-45eb-baeb-b78cbcd79288
Рузаевка,Мордовия,"Респ Мордовия, г Рузаевка",47529,UTC+3,54.0581967,44.9490466,a35889dd-6958-4d3e-8a65-3f628b9179ed
Саранск,Мордовия,г Саранск,318841,UTC+3,54.1809332,45.1862632,1ccfdc3c-be0f-4e42-ab4d-98f90de972d9
Темников,Мордовия,"Респ Мордовия, г Темников",7247,UTC+3,54.6310583,43.2161099,7a57dd0c-5b64-480e-8369-3e22261e2bf0
Арзамас,Нижегородская,"Нижегородская обл, г Арзамас",106367,UTC+3,55.3945814,43.8408141,7e42f157-87d6-4111-a406-17432e814723
Балахна,Нижегородская,"Нижегородская обл, г Балахна",51526,UTC+3,56.495036,43.5758423,275737a6-dee6-493b-82bb-ca5c3c97b24e
Богородск,Нижегородская,"Нижегородская обл, г Богородск",25497,UTC+3,56.1020828,43.5135442,17962cbc-48c7-43d4-b174-c35485d114e7
Бор,Нижегородская,"Нижегородская обл, г Бор",78079,UTC+3,56.3565458,44.0646481,e736e903-6bc3-450b-b8af-7909213dc9ef
Ветлуга,Нижегородская,"Нижегородская обл, г Ветлуга",8956,UTC+3,57.8559204,45.7761957,aa1e00f2-a813-4f3d-b74a-9f9d73bfb1ff
Володарск,Нижегородская,"Нижегородская обл, г Володарск",9924,UTC+3,56.2169751,43.1596417,b92c9e2b-161d-4043-87ef-ed255529f7c6
Ворсма,Нижегородская,"Нижегородская обл, Павловский р-н, г Ворсма",11622,UTC+3,55.989943,43.2718859,cd695c84-0b68-4d4c-8068-76e9bba1228a
Выкса,Нижегородская,"Нижегородская обл, г Выкса",56196,UTC+3,55.3207727,42.1678834,d89942e8-e06b-46bd-a805-7cec8f77417e
Горбатов,Нижегородская,"Нижегородская обл, Павловский р-н, г Горбатов",2278,UTC+3,56.1307769,43.0626185,9e79f812-d4b6-48d6-97c3-aa94c102de3e
Городец,Нижегородская,"Нижегородская обл, г Городец",30699,UTC+3,56.6449218,43.4723104,a80ea6a8-87f3-4621-89bb-eeb16f56ef94
Дзержинск,Нижегородская,"Нижегородская обл, г Дзержинск",240762,UTC+3,56.2376047,43.4599416,1d5a97d5-9bdf-44c9-ac42-e201833e7f28
Заволжье,Нижегородская,"Нижегородская обл, Городецкий р-н, г Заволжье",40265,UTC+3,56.6404286,43.3872492,b1a903c2-9bdf-4a10-8e4b-e34d7b8d7dc3
Княгинино,Нижегородская,"Нижегородская обл, г Княгинино",6708,UTC+3,55.8205915,45.032337,b3350a67-b3c0-47b2-afb3-2b308227a89e
Кстово,Нижегородская,"Нижегородская обл, г Кстово",66641,UTC+3,56.1432084,44.1664198,8d72434a-977f-418b-80e0-f37ff75d52e4
Кулебаки,Нижегородская,"Нижегородская обл, г Кулебаки",35762,UTC+3,55.4296181,42.5125538,a963a64c-29cf-4342-bdc7-d998017aa4cd
Лукоянов,Нижегородская,"Нижегородская обл, г Лукоянов",14949,UTC+3,55.0326225,44.4933807,edc07c38-090b-4990-9484-af85752c484f
Лысково,Нижегородская,"Нижегородская обл, г Лысково",21882,UTC+3,56.0262359,45.035771,978c4d8c-f724-43b1-aa95-0c1fc49dc6b7
Навашино,Нижегородская,"Нижегородская обл, г Навашино",16413,UTC+3,55.543811,42.1887089,87f58ce7-8bad-4b33-9654-907bbd18d36a
Нижний Новгород,Нижегородская,г Нижний Новгород,1250615,UTC+3,56.3240627,44.0053913,555e7d61-d9a7-4ba6-9770-6caa8198c483
Павлово,Нижегородская,"Нижегородская обл, г Павлово",60699,UTC+3,55.9797564,43.0995042,169a49f5-e0ed-44ae-83f8-653e44685e15
Первомайск,Нижегородская,"Нижегородская обл, г Первомайск",14567,UTC+3,54.8675792,43.8013992,a72a0367-92a4-4ec3-9aa2-2397039a3d70
Перевоз,Нижегородская,"Нижегородская обл, г Перевоз",9201,UTC+3,55.5967718,44.5448369,e3ff7ef2-92b6-4ab7-b2ff-4d58cab73dbc
Саров,Нижегородская,"Нижегородская обл, г Саров",92073,UTC+3,54.9228268,43.3448089,be0210d1-1b58-49c1-8304-eb5ff5618fad
Семенов,Нижегородская,"Нижегородская обл, г Семенов",24472,UTC+3,56.7889794,44.4902885,dacc69b0-38df-462e-b346-26541cb9c0b8
Сергач,Нижегородская,"Нижегородская обл, г Сергач",21387,UTC+3,55.5201515,45.4813231,ef4d5a83-c574-48d9-86ec-386f18bec524
Урень,Нижегородская,"Нижегородская обл, г Урень",12311,UTC+3,57.4612572,45.7833293,0e7e2d6e-7217-4624-857a-67b2300c0952
Чкаловск,Нижегородская,"Нижегородская обл, г Чкаловск",12371,UTC+3,56.7651262,43.242077,46659847-4fed-4981-bdaf-d260874864ee
Шахунья,Нижегородская,"Нижегородская обл, г Шахунья",21337,UTC+3,57.6764293,46.6129009,a5d97e2a-acea-44c0-92d1-1f107fc472cd
Абдулино,Оренбургская,"Оренбургская обл, г Абдулино",20663,UTC+5,53.6778906,53.6472483,5e796fe8-2870-4a24-a14a-5669ca0141e5
Бугуруслан,Оренбургская,"Оренбургская обл, г Бугуруслан",52249,UTC+5,53.6523728,52.4326853,680f6208-865b-43b4-ab24-1f42f51d2c33
Бузулук,Оренбургская,"Оренбургская обл, г Бузулук",82816,UTC+5,52.7881277,52.2624877,653b316e-d0ca-414e-9211-03a96643e91b
Гай,Оренбургская,"Оренбургская обл, г Гай",38302,UTC+5,51.4649189,58.4436875,c9a3cd9e-a133-4de9-aafb-a6e0b664312c
Кувандык,Оренбургская,"Оренбургская обл, г Кувандык",26176,UTC+5,51.4783857,57.3612636,7644221b-0ef9-40c3-8378-cb0e2299747e
Медногорск,Оренбургская,"Оренбургская обл, г Медногорск",27253,UTC+5,51.4037617,57.583163,86204c33-b552-4ebd-a93a-9dc8b274ee9c
Новотроицк,Оренбургская,"Оренбургская обл, г Новотроицк",97914,UTC+5,51.1964202,58.3018192,5cb431ac-6645-47b2-9716-5fccc9ec1d7f
Оренбург,Оренбургская,г Оренбург,570329,UTC+5,51.7875092,55.1018828,dce97bff-deb2-4fd9-9aec-4f4327bbf89b
Орск,Оренбургская,"Оренбургская обл, г Орск",238006,UTC+5,51.2294282,58.4752777,71e7cb45-f365-4e6b-b068-a7d35349c3ba
Соль-Илецк,Оренбургская,"Оренбургская обл, г Соль-Илецк",26308,UTC+5,51.1633736,54.9896726,d2d93864-f4a5-4ac2-b953-b230cc9d0fa0
Сорочинск,Оренбургская,"Оренбургская обл, г Сорочинск",30136,UTC+5,52.426685,53.1542745,1d9296cc-f534-4e81-9e97-c31d3ef9c25a
Ясный,Оренбургская,"Оренбургская обл, г Ясный",16082,UTC+5,51.036838,59.874344,c30ba5a3-1222-4fde-a8d0-ef2d8494e4c8
Белинский,Пензенская,"Пензенская обл, г Белинский",8567,UTC+3,52.9640996,43.4183212,ea57fb75-444f-4f54-b89e-d66ac91774ba
Городище,Пензенская,"Пензенская обл, г Городище",8102,UTC+3,53.2726916,45.7026142,b9d45c36-c679-40bb-8168-7ab78913a2c7
Заречный,Пензенская,"Пензенская обл, г Заречный",63579,UTC+3,53.1960836,45.1689907,ff38fc0c-d739-4627-a2f4-58af8f3d9d42
Каменка,Пензенская,"Пензенская обл, г Каменка",39579,UTC+3,53.1855463,44.0469717,e5313349-e01d-47a2-b329-b1629c243520
Кузнецк,Пензенская,"Пензенская обл, г Кузнецк",88886,UTC+3,53.1130888,46.605092,b4751488-e03d-416c-9cde-af7465256bfa
Нижний Ломов,Пензенская,"Пензенская обл, г Нижний Ломов",22678,UTC+3,53.5300905,43.6730217,f852d3a4-5d39-4a1b-be4a-f20ca9c4e60c
Никольск,Пензенская,"Пензенская обл, г Никольск",22471,UTC+3,53.7137496,46.0799857,6e26041a-db1c-4f41-93f1-f056ab0b70ef
Пенза,Пензенская,г Пенза,519592,UTC+3,53.1753314,45.0348625,ff3292b1-a1d2-47d4-b35b-ac06b50555cc
Сердобск,Пензенская,"Пензенская обл, г Сердобск",35393,UTC+3,52.4697595,44.2122414,20c2c219-f4a8-4d07-93c9-72bd6766c0b6
Спасск,Пензенская,"Пензенская обл, г Спасск",7442,UTC+3,53.9271974,43.1859073,d005a0db-1deb-4728-a800-1e423fa804df
Сурск,Пензенская,"Пензенская обл, Городищенский р-н, г Сурск",7032,UTC+3,53.0761357,45.6910796,d8f506c4-a1e4-4524-b997-8651cb6f0af0
Александровск,Пермский,"Пермский край, г Александровск",15022,UTC+5,59.1613221,57.5763459,4f07ade1-1415-44c8-bed9-e851f1ef558d
Березники,Пермский,"Пермский край, г Березники",156350,UTC+5,59.4079923,56.8039427,4ffcde97-05e9-4a6e-bd51-3a984b41b7bd
Верещагино,Пермский,"Пермский край, г Верещагино",22760,UTC+5,58.0797571,54.6581309,9bd0970e-7fbb-4a64-a625-af7670526dba
Горнозаводск,Пермский,"Пермский край, г Горнозаводск",12334,UTC+5,58.3742532,58.3231716,17644b43-80ff-4dea-b823-3b9dbf9e9ef0
Гремячинск,Пермский,"Пермский край, г Гремячинск",11005,UTC+5,58.5626082,57.8520572,edeaf203-1bc3-4fe1-b3ed-15eb89978783
Губаха,Пермский,"Пермский край, г Губаха",27544,UTC+5,58.8371721,57.554533,1dc365d3-60b1-41ea-a3b3-1c599024cf30
Добрянка,Пермский,"Пермский край, г Добрянка",35720,UTC+5,58.469685,56.4130737,230c2f4d-fd9d-46fc-8bbd-b8de26810790
Кизел,Пермский,"Пермский край, г Кизел",20277,UTC+5,59.0512783,57.6471028,cc8b9eb5-bd4e-4472-8314-f889e8a6679c
Красновишерск,Пермский,"Пермский край, г Красновишерск",17129,UTC+5,60.3901321,57.0535682,f42f49ba-d949-4245-843a-6ec5203d2fcd
Краснокамск,Пермский,"Пермский край, г Краснокамск",52632,UTC+5,58.0822065,55.7479936,22ac4485-bdf3-422e-b67f-9b3aba46de5e
Кудымкар,Пермский,"Пермский край, г Кудымкар",30711,UTC+5,59.0167925,54.6572508,d36590ad-0286-44a2-876d-7732deee4234
Кунгур,Пермский,"Пермский край, г Кунгур",67857,UTC+5,57.4283296,56.9438656,73e5113d-949a-4a9e-8e44-6eae9ef93747
Лысьва,Пермский,"Пермский край, г Лысьва",67712,UTC+5,58.0995875,57.8086825,5d7c95a5-a4d7-4fb4-9774-93e527636a9e
Нытва,Пермский,"Пермский край, г Нытва",19041,UTC+5,57.9336725,55.3356084,a49957ba-7860-484f-bf7a-abbbe1d76bab
Оса,Пермский,"Пермский край, г Оса",22420,UTC+5,57.2889515,55.4688668,18e7b084-c83f-40bf-9378-d26628528a19
Оханск,Пермский,"Пермский край, г Оханск",7597,UTC+5,57.7180034,55.3872469,48159476-c6db-4258-a0bc-f8ee52e7aef6
Очер,Пермский,"Пермский край, г Очер",15003,UTC+5,57.8852686,54.7161091,6a9b1a8a-5da1-470c-a03a-ecbb3cee0ee9
Пермь,Пермский,г Пермь,1000679,UTC+5,58.0102583,56.2342034,a309e4ce-2f36-4106-b1ca-53e0f48a6d95
Соликамск,Пермский,"Пермский край, г Соликамск",97239,UTC+5,59.6482998,56.771009,8b698775-fe5e-4fc0-9f0d-272855d82d15
Усолье,Пермский,"Пермский край, г Усолье",5694,UTC+5,59.4277573,56.6837872,9acef094-749b-406f-89a2-98c02ebf50c5
Чайковский,Пермский,"Пермский край, г Чайковский",82933,UTC+5,56.7781501,54.1477965,06d7a6d6-8f57-4e5a-b698-2bc44c92bb84
Чердынь,Пермский,"Пермский край, г Чердынь",4920,UTC+5,60.4011933,56.4799933,242133ad-1c0f-43f0-9865-7b5f914a778f
Чермоз,Пермский,"Пермский край, Ильинский р-н, г Чермоз",4017,UTC+5,58.7842834,56.1507138,8f353d4e-1374-4a88-a06b-51c6a3f9acd1
Чернушка,Пермский,"Пермский край, г Чернушка",33275,UTC+5,56.5160768,56.0763049,c3a35399-c5ea-4f12-bf34-c2cc21e1cc60
Чусовой,Пермский,"Пермский край, г Чусовой",46740,UTC+5,58.2974596,57.8193615,784b1911-182d-476b-a4ad-0f3fa1ef7777
Жигулевск,Самарская,"Самарская обл, г Жигулевск",57565,UTC+4,53.4011981,49.4945176,2f44f8ee-a505-46bf-b6de-6648a166295e
Кинель,Самарская,"Самарская обл, г Кинель",34472,UTC+4,53.2210298,50.6343776,8ca7cbe5-a14b-416a-974a-dfa56e7f396a
Нефтегорск,Самарская,"Самарская обл, г Нефтегорск",18732,UTC+4,52.7972914,51.1637392,43406101-21a4-4a07-ac5a-0a686f9e8d1c
Новокуйбышевск,Самарская,"Самарская обл, г Новокуйбышевск",108449,UTC+4,53.0994565,49.9477382,cda74a83-ae08-4ba2-b01c-c6fc373222cb
Октябрьск,Самарская,"Самарская обл, г Октябрьск",27244,UTC+4,53.1640488,48.670762,b9a43610-5c01-4ba8-8de7-95facc7e460d
Отрадный,Самарская,"Самарская обл, г Отрадный",47709,UTC+4,53.3800848,51.3438605,05edd5aa-ab64-4afa-b56c-fd5661a14129
Похвистнево,Самарская,"Самарская обл, г Похвистнево",28181,UTC+4,53.6498299,52.1235156,ddb9cec8-ee07-4788-b80d-39535aea78f9
Самара,Самарская,г Самара,1164900,UTC+4,53.1950306,50.1069518,bb035cc3-1dc2-4627-9d25-a1bf2d4b936b
Сызрань,Самарская,"Самарская обл, г Сызрань",178773,UTC+4,53.1558674,48.4744629,e9e684ce-7d60-4480-ba14-ca6da658188b
Тольятти,Самарская,"Самарская обл, г Тольятти",719484,UTC+4,53.5205348,49.3894028,242e87c1-584d-4360-8c4c-aae2fe90048e
Чапаевск,Самарская,"Самарская обл, г Чапаевск",72689,UTC+4,52.928961,49.8673269,90a11c8e-c39f-4bcd-9df4-f89bed18958c
Аркадак,Саратовская,"Саратовская обл, г Аркадак",12846,UTC+4,51.938831,43.4999221,9b58edf4-1ee2-43e0-9df9-d93d48a66ad1
Аткарск,Саратовская,"Саратовская обл, г Аткарск",25620,UTC+4,51.8736062,45.0003247,6f9e3e0b-3872-4abf-a2ba-23ae4b196a73
Балаково,Саратовская,"Саратовская обл, г Балаково",199576,UTC+4,52.0224231,47.7827765,45eea4e7-2977-44bb-9b3d-ef8e9198e5d2
Балашов,Саратовская,"Саратовская обл, г Балашов",82222,UTC+4,51.5388697,43.1839757,574ddbe6-5e16-4e5b-9cf5-5f3be3a8a6c9
Вольск,Саратовская,"Саратовская обл, г Вольск",66520,UTC+4,52.0459865,47.3873595,83f29047-8dd9-411d-ac4b-c5811ea815f1
Ершов,Саратовская,"Саратовская обл, г Ершов",21447,UTC+4,51.3508505,48.2762226,2f0ecdcb-c844-4de9-80cc-6d19795ccb3a
Калининск,Саратовская,"Саратовская обл, г Калининск",16442,UTC+4,51.4993591,44.4710435,634cee3a-db47-4b0f-9b90-8be1d5965db5
Красноармейск,Саратовская,"Саратовская обл, г Красноармейск",24362,UTC+4,51.023541,45.695044,64954753-8e36-4948-9372-af3a08e88d57
Красный Кут,Саратовская,"Саратовская обл, г Красный Кут",14420,UTC+4,50.9598317,46.9712016,94ff279a-6567-4ac1-8001-42d8fd89605e
Маркс,Саратовская,"Саратовская обл, г Маркс",31535,UTC+4,51.7133337,46.7400339,c1a0ca30-8b42-4cc8-a16d-2d3392937621
Новоузенск,Саратовская,"Саратовская обл, г Новоузенск",17015,UTC+4,50.455199,48.1413153,2d06120f-ba70-4866-b46e-ec2bad9c4f42
Петровск,Саратовская,"Саратовская обл, г Петровск",31158,UTC+4,52.3094237,45.3851877,b5d97e65-e496-44d0-b025-398a8d43514a
Пугачев,Саратовская,"Саратовская обл, г Пугачев",41705,UTC+4,52.0159921,48.7972223,c1d4d969-0083-4b04-9f4b-e9eaeaefbd6f
Ртищево,Саратовская,"Саратовская обл, г Ртищево",41295,UTC+4,52.2616271,43.7842248,d08bbea8-4fa3-4597-87ae-0bd79b4a89d2
Саратов,Саратовская,г Саратов,836900,UTC+4,51.533557,46.034257,bf465fda-7834-47d5-986b-ccdb584a85a6
Хвалынск,Саратовская,"Саратовская обл, г Хвалынск",13199,UTC+4,52.4951572,48.1045771,ac586a68-2f14-403e-9ce0-46c01832652d
Шиханы,Саратовская,"Саратовская обл, г Шиханы",6067,UTC+4,52.1147391,47.2023118,6c6b065e-9f1c-4afd-ac61-ff8338972818
Энгельс,Саратовская,"Саратовская обл, г Энгельс",202838,UTC+4,51.4854003,46.126722,c58d0505-54eb-4c34-8216-b14f7cdb0ecb
Агрыз,Татарстан,"Респ Татарстан, г Агрыз",19299,UTC+3,56.5232864,52.9943775,9f936889-a757-419e-890a-d4cc1fa95e93
Азнакаево,Татарстан,"Респ Татарстан, г Азнакаево",34859,UTC+3,54.8598642,53.0745527,17296190-84f5-4afd-93c5-2b79cfc8bc12
Альметьевск,Татарстан,"Респ Татарстан, г Альметьевск",146309,UTC+3,54.9014619,52.2970467,1ca4e6ce-2bc8-40a9-bdf5-113449c3a172
Арск,Татарстан,"Респ Татарстан, г Арск",18114,UTC+3,56.0912567,49.877067,d2c6e970-af35-41fe-9ba6-dc44a4187c67
Бавлы,Татарстан,"Респ Татарстан, г Бавлы",22109,UTC+3,54.4062891,53.2458065,2a7d9c47-fc56-4167-a5fc-5e40a8a5f5d5
Болгар,Татарстан,"Респ Татарстан, г Болгар",8650,UTC+3,54.974891,49.0303882,724d41e3-f0ac-4254-a207-897ea3d42076
Бугульма,Татарстан,"Респ Татарстан, г Бугульма",89144,UTC+3,54.5363495,52.7895849,2c857ac6-3fb8-421d-bfd4-deeffa96df8f
Буинск,Татарстан,"Респ Татарстан, г Буинск",20342,UTC+3,54.9641538,48.2901209,58e5a396-77c4-4ab6-b235-afe364c0580f
Елабуга,Татарстан,"Респ Татарстан, г Елабуга",70750,UTC+3,55.7567107,52.0543794,82d4c783-5080-4faa-9cec-ba9152bc9fc8
Заинск,Татарстан,"Респ Татарстан, г Заинск",41798,UTC+3,55.299053,52.0062972,098deac5-b810-4584-b277-10f8b5afe51d
Зеленодольск,Татарстан,"Респ Татарстан, г Зеленодольск",97651,UTC+3,55.8466651,48.5010954,1e90ec38-0f85-442b-ac1b-ca687fa91d88
Иннополис,Татарстан,"Респ Татарстан, Верхнеуслонский р-н, г Иннополис",96,UTC+3,55.7521699,48.7446846,98da33d3-9455-497a-9703-a0f89c95a901
Казань,Татарстан,г Казань,1216965,UTC+3,55.7943584,49.1114975,93b3df57-4c89-44df-ac42-96f05e9cd3b9
Кукмор,Татарстан,"Респ Татарстан, г Кукмор",17700,UTC+3,56.1861392,50.8970238,840033db-f0cb-4783-b0e0-8c9235d64948
Лаишево,Татарстан,"Респ Татарстан, г Лаишево",7735,UTC+3,55.4042867,49.5499838,72197ca2-8209-49d6-ba10-7796b2e2e852
Лениногорск,Татарстан,"Респ Татарстан, г Лениногорск",64145,UTC+3,54.5967034,52.4431906,e3a88932-c76e-4158-842c-d710a9856df1
Мамадыш,Татарстан,"Респ Татарстан, г Мамадыш",14432,UTC+3,55.7150413,51.4129016,1d9bbe0d-7086-4fd0-b91c-ed6d196cb818
Менделеевск,Татарстан,"Респ Татарстан, г Менделеевск",22075,UTC+3,55.895169,52.3143347,e23b4fcb-782b-4d5c-b962-94fd6018fef6
Мензелинск,Татарстан,"Респ Татарстан, г Мензелинск",16474,UTC+3,55.7270698,53.1003968,d1d11ebe-b022-44aa-a211-3472483a4974
Набережные Челны,Татарстан,"Респ Татарстан, г Набережные Челны",513242,UTC+3,55.7434619,52.3959165,748d7afa-7407-4876-9f40-764ecdd09bbd
Нижнекамск,Татарстан,"Респ Татарстан, г Нижнекамск",234108,UTC+3,55.6313609,51.8144669,6b849aa8-0782-4c26-b7ac-a0f413f306c0
Нурлат,Татарстан,"Респ Татарстан, г Нурлат",32600,UTC+3,54.4281461,50.8049337,1f708d3c-4d86-4ab7-afdf-5741fe661744
Тетюши,Татарстан,"Респ Татарстан, г Тетюши",11596,UTC+3,54.936516,48.8314533,e277c80f-b3ce-40d5-9a46-8c1e3a8dd1ba
Чистополь,Татарстан,"Респ Татарстан, г Чистополь",60703,UTC+3,55.3699139,50.6285784,c3c7b150-1b5b-49a6-ace2-a24b403b3b94
Воткинск,Удмуртская,"Респ Удмуртская, г Воткинск",100034,UTC+4,57.0518149,53.9873096,d948319d-b151-48f5-9791-22ccfeeabfe7
Глазов,Удмуртская,"Респ Удмуртская, г Глазов",95835,UTC+4,58.1359233,52.6635038,afeea607-0207-467f-8c59-562fc634f924
Ижевск,Удмуртская,г Ижевск,628117,UTC+4,56.852738,53.2114896,deb1d05a-71ce-40d1-b726-6ba85d70d58f
Камбарка,Удмуртская,"Респ Удмуртская, г Камбарка",11028,UTC+4,56.2659916,54.193374,b3bb969f-79ee-46fb-b23c-42a7b19fe8e1
Можга,Удмуртская,"Респ Удмуртская, г Можга",47959,UTC+4,56.4427774,52.2137886,7096d8a5-2b41-47b1-95ae-35efcbc07dee
Сарапул,Удмуртская,"Респ Удмуртская, г Сарапул",101390,UTC+4,56.4615767,53.8037657,e69a280f-9064-490e-bae0-8bd39527872f
Барыш,Ульяновская,"Ульяновская обл, Барышский р-н, г Барыш",17149,UTC+4,53.6533992,47.1181134,52cccd1a-84fd-448a-a91e-36f113b9946f
Димитровград,Ульяновская,"Ульяновская обл, г Димитровград",122549,UTC+4,54.2167926,49.6262585,73b29372-242c-42c5-89cd-8814bc2368af
Инза,Ульяновская,"Ульяновская обл, г Инза",18547,UTC+4,53.8549647,46.3533459,a23672b1-86cf-4b07-b1a1-cf0b58e7419b
Новоульяновск,Ульяновская,"Ульяновская обл, г Новоульяновск",16032,UTC+4,54.1447956,48.3910789,c21a50ef-de67-477c-887b-a1202730ee8e
Сенгилей,Ульяновская,"Ульяновская обл, г Сенгилей",6959,UTC+4,53.958964,48.7768269,b9e9ca48-b953-4999-bf0e-608c57c0d0a0
Ульяновск,Ульяновская,г Ульяновск,613793,UTC+4,54.3079415,48.3748487,bebfd75d-a0da-4bf9-8307-2e2c85eac463
Алатырь,Чувашская Республика,"Чувашская Республика - Чувашия, г Алатырь",38202,UTC+3,54.8397989,46.5721997,a699e866-12f0-42c3-94fd-67ca44468805
Канаш,Чувашская Республика,"Чувашская Республика - Чувашия, г Канаш",45608,UTC+3,55.507,47.4918273,6edd2a33-d03a-4d59-83c3-e14de6890a49
Козловка,Чувашская Республика,"Чувашская Республика - Чувашия, г Козловка",10355,UTC+3,55.8406025,48.2577735,e4cdd522-24f9-4fa7-a900-7bd35be4ada5
Мариинский Посад,Чувашская Республика,"Чувашская Республика - Чувашия, г Мариинский Посад",10186,UTC+3,56.111923,47.7142942,a3514c10-c53a-4c6a-a945-c1a9b7bc6d31
Новочебоксарск,Чувашская Республика,"Чувашская Республика - Чувашия, г Новочебоксарск",124094,UTC+3,56.1094977,47.4791113,32599307-3fe7-4cf4-8fee-640044422d68
Цивильск,Чувашская Республика,"Чувашская Республика - Чувашия, г Цивильск",13478,UTC+3,55.8650213,47.4729349,927d7cf4-f2e6-4617-9cf6-e73edf9fd9ad
Чебоксары,Чувашская Республика,г Чебоксары,447929,UTC+3,56.1438298,47.2489782,dd8caeab-c685-4f2a-bf5f-550aca1bbc48
Шумерля,Чувашская Республика,"Чувашская Республика - Чувашия, г Шумерля",33412,UTC+3,55.4962415,46.4182681,068dfc2d-3a52-4d7f-93bc-797c286e66ac
Ядрин,Чувашская Республика,"Чувашская Республика - Чувашия, г Ядрин",9614,UTC+3,55.9406974,46.2020896,49bf68fa-6f47-4281-9c0f-b2ff8fa96cf6
Архангельск,Архангельская,г Архангельск,348716,UTC+3,64.5394289,40.5169606,06814fb6-0dc3-4bec-ba20-11f894a0faf5
Вельск,Архангельская,"Архангельская обл, г Вельск",23885,UTC+3,61.066,42.1032789,71051070-fce3-4a4d-a9d9-cd50f6dc6310
Каргополь,Архангельская,"Архангельская обл, г Каргополь",10148,UTC+3,61.5009724,38.9636966,a670f317-f3c4-4dd6-9d27-fa68a8b28b6f
Коряжма,Архангельская,"Архангельская обл, г Коряжма",39629,UTC+3,61.2885948,47.1003015,782acb50-ddfa-4483-bcbd-a5e667976036
Котлас,Архангельская,"Архангельская обл, г Котлас",60562,UTC+3,61.2528972,46.633242,93adb246-540e-40a2-a0fd-e96ca6796589
Мезень,Архангельская,"Архангельская обл, г Мезень",3599,UTC+3,65.8398078,44.2532273,8a49f67f-6c48-4160-bd1d-ebc188a69269
Мирный,Архангельская,"Архангельская обл, г Мирный",30259,UTC+3,62.7645265,40.3360076,977c7606-1b37-4424-84f7-b0c66c3e4b94
Новодвинск,Архангельская,"Архангельская обл, г Новодвинск",40612,UTC+3,64.4136851,40.8208143,3b0ef6c2-9bcd-44a5-afec-2723bd8190bc
Няндома,Архангельская,"Архангельская обл, г Няндома",22354,UTC+3,61.6654674,40.2062947,491b0861-0da5-4781-9c2c-521df0ea7af6
Онега,Архангельская,"Архангельская обл, г Онега",21359,UTC+3,63.9162928,38.0805031,53e6ddd5-a1fb-4444-89a4-3952ef6f114b
Северодвинск,Архангельская,"Архангельская обл, г Северодвинск",192265,UTC+3,64.5625385,39.8180934,32747c72-c08b-4440-b340-91f48d72f9db
Сольвычегодск,Архангельская,"Архангельская обл, Котласский р-н, г Сольвычегодск",2460,UTC+3,61.3319616,46.920441,a56a44ee-f79d-4e51-b219-c3c828c7e0c0
Шенкурск,Архангельская,"Архангельская обл, г Шенкурск",5702,UTC+3,62.1057272,42.8996973,74a26d75-38a6-485a-9468-52dd7c6711fa
Бабаево,Вологодская,"Вологодская обл, г Бабаево",12074,UTC+3,59.3892583,35.9377058,e61e9415-3cdc-4e44-9cdf-a98662bab04f
Белозерск,Вологодская,"Вологодская обл, г Белозерск",9614,UTC+3,60.0308381,37.7890586,9444e5a5-b164-42b8-b4ff-e3b4c157fc54
Великий Устюг,Вологодская,"Вологодская обл, г Великий Устюг",31664,UTC+3,60.7603913,46.3054414,9db452cb-452a-4373-9610-a265b3b55653
Вологда,Вологодская,г Вологда,301642,UTC+3,59.2483905,39.8355662,023484a5-f98d-4849-82e1-b7e0444b54ef
Вытегра,Вологодская,"Вологодская обл, г Вытегра",10490,UTC+3,61.0063465,36.4495137,f66fbc22-445e-42ab-8f53-3de507d877c9
Грязовец,Вологодская,"Вологодская обл, г Грязовец",15528,UTC+3,58.8757553,40.2485362,aeee36bc-969a-4cc6-9fb3-5e237e776068
Кадников,Вологодская,"Вологодская обл, Сокольский р-н, г Кадников",4797,UTC+3,59.5037764,40.3441148,eb52b8bf-131d-4250-9a09-c0d41a7d42ee
Кириллов,Вологодская,"Вологодская обл, г Кириллов",7735,UTC+3,59.8591523,38.3748782,bfe722ba-8bfd-4dbd-acc5-73da667a0f95
Красавино,Вологодская,"Вологодская обл, Великоустюгский р-н, г Красавино",7003,UTC+3,60.9612823,46.4814116,78a546b6-196d-407f-a082-e7e85ff4acad
Никольск,Вологодская,"Вологодская обл, г Никольск",8515,UTC+3,59.5351837,45.4576137,9b602724-8b73-4979-ae01-3ba8a22c93f2
Сокол,Вологодская,"Вологодская обл, г Сокол",38454,UTC+3,59.4758605,40.1114187,500b9e8f-79cc-4c35-b497-110f550d6615
Тотьма,Вологодская,"Вологодская обл, г Тотьма",9784,UTC+3,59.9734998,42.7589506,3a0d6df8-c23f-4435-83bb-9f97dd2e3343
Устюжна,Вологодская,"Вологодская обл, г Устюжна",9478,UTC+3,58.8383117,36.4425478,3c2ceeea-04a9-4171-b4dd-341620290258
Харовск,Вологодская,"Вологодская обл, г Харовск",10078,UTC+3,59.9479423,40.2000298,e5e0513c-fc84-4373-b3ee-05f8382f8110
Череповец,Вологодская,"Вологодская обл, г Череповец",312311,UTC+3,59.1269212,37.9090497,b4c30848-5181-44b4-88fa-456e1c4aeb0f
Багратионовск,Калининградская,"Калининградская обл, г Багратионовск",6399,UTC+2,54.3866518,20.6418091,427dc561-3277-43bd-a310-7c1953a3c8bd
Балтийск,Калининградская,"Калининградская обл, г Балтийск",32670,UTC+2,54.6513372,19.9140572,97323948-09db-411c-8e9a-43ad2ec25687
Гвардейск,Калининградская,"Калининградская обл, г Гвардейск",13888,UTC+2,54.6588378,21.0501388,8f9e9cc0-711f-470a-9fff-2a65c00c8439
Гурьевск,Калининградская,"Калининградская обл, г Гурьевск",12433,UTC+2,54.770638,20.6039767,27bc7f09-4593-4972-950b-231f2a49d44b
Гусев,Калининградская,"Калининградская обл, г Гусев",28260,UTC+2,54.5915455,22.1942445,66cb21da-0212-4d22-a2a3-f1badcd3a9d4
Зеленоградск,Калининградская,"Калининградская обл, г Зеленоградск",13015,UTC+2,54.9600185,20.4753652,448d8a42-8ebf-4ca5-a9f2-98efb532630f
Калининград,Калининградская,г Калининград,431491,UTC+2,54.7074702,20.5073241,df679694-d505-4dd3-b514-4ba48c8a97d8
Краснознаменск,Калининградская,"Калининградская обл, г Краснознаменск",3522,UTC+2,54.9453423,22.4928745,40c2a58b-8f84-4b30-8a22-038efe4f059a
Ладушкин,Калининградская,"Калининградская обл, г Ладушкин",3788,UTC+2,54.5692156,20.1690153,04950f38-5c4c-4989-8b7a-6224795a2b59
Мамоново,Калининградская,"Калининградская обл, г Мамоново",7757,UTC+2,54.4646036,19.9453482,2942ef2d-01b0-4137-8f46-5228e9eedd7f
Неман,Калининградская,"Калининградская обл, г Неман",11794,UTC+2,55.0316524,22.0324064,180fcdbd-95b4-41f5-90f5-cbe9b9c83da7
Нестеров,Калининградская,"Калининградская обл, г Нестеров",4584,UTC+2,54.6313814,22.5713736,4fb71afc-f221-454e-9edf-d6fd9ee07418
Озерск,Калининградская,"Калининградская обл, г Озерск",4740,UTC+2,54.4084705,22.0134438,19620317-39e8-4a09-af7e-67b136ef61fe
Пионерский,Калининградская,"Калининградская обл, г Пионерский",11017,UTC+2,54.9516574,20.2277424,9fee1c1b-9d14-42ea-8ff9-2e903501d43d
Полесск,Калининградская,"Калининградская обл, г Полесск",7580,UTC+2,54.8625126,21.0998067,27fd5628-fbd7-4641-abed-b213af6029b8
Правдинск,Калининградская,"Калининградская обл, г Правдинск",4323,UTC+2,54.4430986,21.0085269,2b3f4c49-0e5b-44c8-bf56-a335eb551c23
Приморск,Калининградская,"Калининградская обл, Балтийский р-н, г Приморск",1956,UTC+2,54.7311437,19.9981926,5f19f5f2-55b1-4796-9610-8a73eeefcaf1
Светлогорск,Калининградская,"Калининградская обл, г Светлогорск",10775,UTC+2,54.9439286,20.1514295,19436029-357a-435b-8156-b01fba4ea8a5
Светлый,Калининградская,"Калининградская обл, г Светлый",21380,UTC+2,54.6772897,20.1357595,6d379259-b8d5-4cca-9412-1ded0849fd1a
Славск,Калининградская,"Калининградская обл, г Славск",4614,UTC+2,55.0449714,21.6742367,f731c104-431c-494c-b4e8-f97ccaaf71b9
Советск,Калининградская,"Калининградская обл, г Советск",41709,UTC+2,55.0809336,21.8886106,e401208f-3469-403f-910b-bba057cf70b2
Черняховск,Калининградская,"Калининградская обл, г Черняховск",40464,UTC+2,54.6244751,21.7969062,acde8f61-fd56-4cec-a4df-1f033e2a63ee
Беломорск,Карелия,"Респ Карелия, г Беломорск",11217,UTC+3,64.5378417,34.7799462,b4bc7957-5539-4da9-ac5f-d6ee037c0d52
Кемь,Карелия,"Респ Карелия, Кемский р-н, г Кемь",13061,UTC+3,64.9543539,34.5949263,e4338e50-dae7-4bd0-8843-ca0db77140d3
Кондопога,Карелия,"Респ Карелия, г Кондопога",32978,UTC+3,62.2059817,34.2682122,ca9f6919-1174-4f35-a932-232fa02a4334
Костомукша,Карелия,"Респ Карелия, г Костомукша",28433,UTC+3,64.5889398,30.6016832,1925075b-8541-4075-97ea-edad0557626e
Лахденпохья,Карелия,"Респ Карелия, г Лахденпохья",7818,UTC+3,61.518881,30.1996116,5b02bb69-ea4f-482d-b6c3-5bdfea5244d6
Медвежьегорск,Карелия,"Респ Карелия, г Медвежьегорск",15536,UTC+3,62.9127626,34.4568489,fec511c3-62fc-4093-95bd-89f05b26afa6
Олонец,Карелия,"Респ Карелия, г Олонец",9060,UTC+3,60.9794025,32.9725519,38568ddc-20b7-409f-aa76-024b3b02c637
Петрозаводск,Карелия,г Петрозаводск,263540,UTC+3,61.7891264,34.3596434,ccc34487-8fd4-4e71-b032-f4e6c82fb354
Питкяранта,Карелия,"Респ Карелия, г Питкяранта",11484,UTC+3,61.5757191,31.4640557,284264da-5fb5-4301-b36a-1127d751329d
Пудож,Карелия,"Респ Карелия, г Пудож",9698,UTC+3,61.8058821,36.5329941,ed96ee68-5ea9-4ebd-950a-2bbbd545b78e
Сегежа,Карелия,"Респ Карелия, г Сегежа",29660,UTC+3,63.7437572,34.3126982,4eb67866-2460-40c3-b69f-80889385caa3
Сортавала,Карелия,"Респ Карелия, г Сортавала",19215,UTC+3,61.703367,30.6916998,7fa96873-4865-4f14-99e4-78d118cdca8b
Суоярви,Карелия,"Респ Карелия, г Суоярви",9763,UTC+3,62.0787293,32.3499386,8a5c4019-f746-4445-8679-cb6740633a78
Воркута,Коми,"Респ Коми, г Воркута",70551,UTC+3,67.4974082,64.061034,e0bf9ea3-7cbf-4b13-95f1-32c3ee9b3ae5
Вуктыл,Коми,"Респ Коми, г Вуктыл",12357,UTC+3,63.8615274,57.3165402,f69a676b-8ede-4a19-80b6-6db85a12b5e1
Емва,Коми,"Респ Коми, г Емва",14574,UTC+3,62.5965137,50.8732125,77fc9582-dbc7-4696-9ddc-00471e94553f
Инта,Коми,"Респ Коми, г Инта",32021,UTC+3,66.0367316,60.1152961,1b136d3e-3bd6-440c-a3fd-23303143c440
Микунь,Коми,"Респ Коми, Усть-Вымский р-н, г Микунь",10732,UTC+3,62.3579068,50.0719503,2144ca72-ea8d-4ad6-90bc-e8443944087a
Печора,Коми,"Респ Коми, г Печора",43458,UTC+3,65.148584,57.2239777,e0ba898b-b813-4293-b817-510d586afd6e
Сосногорск,Коми,"Респ Коми, г Сосногорск",27809,UTC+3,63.5989841,53.876293,9a2569ae-14fb-43bb-b192-a4c29c463c28
Сыктывкар,Коми,г Сыктывкар,235006,UTC+3,61.6686617,50.8358151,d2944a73-daf4-4a08-9b34-d9b0af7785a1
Усинск,Коми,"Респ Коми, г Усинск",41100,UTC+3,65.994147,57.5569423,267fd50d-0077-4041-9594-18b1de5f2acb
Ухта,Коми,"Респ Коми, г Ухта",99642,UTC+3,63.5565514,53.7014239,067b4cef-e128-4d5a-8305-fecf53e7b7e8
Бокситогорск,Ленинградская,"Ленинградская обл, г Бокситогорск",16593,UTC+3,59.4734797,33.845688,1a12dc30-ca4c-480f-89dd-31452648b493
Волосово,Ленинградская,"Ленинградская обл, г Волосово",12162,UTC+3,59.4445408,29.4923355,eb8a9d09-6728-43fe-b3d1-21a2c804b40c
Волхов,Ленинградская,"Ленинградская обл, г Волхов",47344,UTC+3,59.9005958,32.3520756,d77089df-c8ed-464d-a26b-69ce42383a0f
Всеволожск,Ленинградская,"Ленинградская обл, г Всеволожск",59689,UTC+3,60.0191278,30.6456718,c70a5280-c482-4f6e-801a-cdd6851eab50
Выборг,Ленинградская,"Ленинградская обл, г Выборг",80013,UTC+3,60.7130801,28.7328336,a4a3e3af-ce5a-4eba-9aae-36c350fa7fec
Высоцк,Ленинградская,"Ленинградская обл, Выборгский р-н, г Высоцк",1244,UTC+3,60.6296236,28.5709314,f0a4b813-7189-4bd4-8a3a-aaa7fbed4711
Гатчина,Ленинградская,"Ленинградская обл, г Гатчина",92566,UTC+3,59.565237,30.1282473,d193a2f8-4ea1-406a-ba9a-698ae19caeb7
Ивангород,Ленинградская,"Ленинградская обл, Кингисеппский р-н, г Ивангород",9797,UTC+3,59.3766119,28.2231659,752d9929-945c-4464-ae38-20a626108da9
Каменногорск,Ленинградская,"Ленинградская обл, Выборгский р-н, г Каменногорск",6761,UTC+3,60.950855,29.1308372,58399f33-3e18-4921-950a-ac0fa5f9e97c
Кингисепп,Ленинградская,"Ленинградская обл, г Кингисепп",48667,UTC+3,59.3740435,28.6112444,ef14bc6b-dd76-4264-bb40-c0fd8a60985b
Кириши,Ленинградская,"Ленинградская обл, г Кириши",52826,UTC+3,59.4742862,32.0624947,52da70f1-08b0-4b4c-9d22-d67a62bc2aa5
Кировск,Ленинградская,"Ленинградская обл, г Кировск",25633,UTC+3,59.8754216,30.981364,a1535e5e-c151-431a-a4c4-954d4545e37a
Коммунар,Ленинградская,"Ленинградская обл, Гатчинский р-н, г Коммунар",20265,UTC+3,59.6215133,30.3934125,459dca99-04ff-44fb-af9f-7e2100ec28ac
Кудрово,Ленинградская,"Ленинградская обл, Всеволожский р-н, г Кудрово",13501,UTC+3,59.9075226,30.5121008,98cd19c4-e172-4fa3-a81d-7caedeec669b
Лодейное Поле,Ленинградская,"Ленинградская обл, г Лодейное Поле",21053,UTC+3,60.7320936,33.5521022,5f52edf9-92aa-4e69-9314-e629c45ec1d5
Луга,Ленинградская,"Ленинградская обл, г Луга",36409,UTC+3,58.7374031,29.8465776,d9135f5d-627e-441d-b208-9087ee0367dd
Любань,Ленинградская,"Ленинградская обл, Тосненский р-н, г Любань",4188,UTC+3,59.3493847,31.2484801,cda96dc0-75b2-411b-b995-16cc63fcfa05
Мурино,Ленинградская,"Ленинградская обл, Всеволожский р-н, г Мурино",19775,UTC+3,60.044862,30.4571456,d73506c5-015c-4c39-929a-696ea8144e16
Никольское,Ленинградская,"Ленинградская обл, Тосненский р-н, г Никольское",19345,UTC+3,59.7043309,30.7874571,43cb88de-fa89-4027-b3ef-84deb2d32ce5
Новая Ладога,Ленинградская,"Ленинградская обл, Волховский р-н, г Новая Ладога",8890,UTC+3,60.1100135,32.3141203,2145f2cb-3ec2-4c1d-bd52-f84b2858c6a9
Отрадное,Ленинградская,"Ленинградская обл, Кировский р-н, г Отрадное",23874,UTC+3,59.7726848,30.7988557,c4602384-ff62-4e0f-bf4b-06a5c653702b
Пикалево,Ленинградская,"Ленинградская обл, Бокситогорский р-н, г Пикалево",21567,UTC+3,59.5132022,34.1772776,0a243487-acce-4775-979a-5a08e8c62da6
Подпорожье,Ленинградская,"Ленинградская обл, г Подпорожье",18729,UTC+3,60.9127549,34.1567664,6d13b512-6d25-413a-ab29-3d9ade960f3a
Приморск,Ленинградская,"Ленинградская обл, Выборгский р-н, г Приморск",6122,UTC+3,60.3660209,28.6135772,878aa7cc-76f0-42c8-90f5-3489f43c169c
Приозерск,Ленинградская,"Ленинградская обл, г Приозерск",18929,UTC+3,61.0330896,30.1587851,59a9c284-72fb-49e6-8380-10ca044d0bd7
Светогорск,Ленинградская,"Ленинградская обл, Выборгский р-н, г Светогорск",15973,UTC+3,61.1111282,28.8725865,d4789972-b71d-4e70-9af8-f4acfcf80c71
Сертолово,Ленинградская,"Ленинградская обл, Всеволожский р-н, г Сертолово",47854,UTC+3,60.1446932,30.2095918,79b806cd-e36c-48fc-b82c-8cbb5cfd9450
Сланцы,Ленинградская,"Ленинградская обл, г Сланцы",33587,UTC+3,59.1178185,28.0881475,a7a1a8e5-45b2-4542-b718-0976702ccd90
Сосновый Бор,Ленинградская,"Ленинградская обл, г Сосновый Бор",65901,UTC+3,59.8772884,29.1291619,f4a4b31f-9f0a-4fdb-804c-d67661085eb4
Сясьстрой,Ленинградская,"Ленинградская обл, Волховский р-н, г Сясьстрой",13747,UTC+3,60.1401739,32.5601559,f59186fa-b4db-4b2d-88b9-e3fde4a90690
Тихвин,Ленинградская,"Ленинградская обл, г Тихвин",58843,UTC+3,59.6272904,33.5072731,86ec26f6-d980-4c40-b4ce-77e1638ec8ad
Тосно,Ленинградская,"Ленинградская обл, г Тосно",39127,UTC+3,59.5407098,30.877812,165119d1-6555-4473-8b90-46ec517b4076
Шлиссельбург,Ленинградская,"Ленинградская обл, Кировский р-н, г Шлиссельбург",13305,UTC+3,59.9443714,31.0333365,5a543514-a133-431c-919e-8a61c2261783
Апатиты,Мурманская,"Мурманская обл, г Апатиты",59690,UTC+3,67.5677761,33.4067929,f0851e80-59d9-400b-b6d5-5f5f623bb29d
Гаджиево,Мурманская,"Мурманская обл, г Гаджиево",11089,UTC+3,69.2491311,33.315341,b77147ce-b55e-4019-9aca-ed3872b9fbb0
Заозерск,Мурманская,"Мурманская обл, г Заозерск",11206,UTC+3,69.4003584,32.4501496,81a88076-04de-46c9-940a-3cb300e70e5b
Заполярный,Мурманская,"Мурманская обл, Печенгский р-н, г Заполярный",15835,UTC+3,69.4132852,30.7984312,304cb068-e1d1-4947-944f-07c38cd8db6e
Кандалакша,Мурманская,"Мурманская обл, г Кандалакша",35659,UTC+3,67.1567974,32.4143218,30fa6bcc-608e-40cb-b22a-b202967ff2a6
Кировск,Мурманская,"Мурманская обл, г Кировск",28659,UTC+3,67.6150424,33.663735,f658a2c0-1f7d-4423-9465-e55d3553bf86
Ковдор,Мурманская,"Мурманская обл, г Ковдор",18836,UTC+3,67.5661417,30.4741941,01cc7377-a3a7-4793-9c77-52e3ef66a6ff
Кола,Мурманская,"Мурманская обл, г Кола",10447,UTC+3,68.8786028,33.0262299,866ace16-21ff-49c4-af8d-b74ef0e80208
Мончегорск,Мурманская,"Мурманская обл, г Мончегорск",45381,UTC+3,67.9386153,32.9359719,177e037d-a06d-4f8a-9333-fd534dd34c5d
Мурманск,Мурманская,г Мурманск,307664,UTC+3,69.007721,33.0685865,b7127184-ead6-422b-b7cf-4fc7725b47a5
Оленегорск,Мурманская,"Мурманская обл, г Оленегорск",23079,UTC+3,68.1422058,33.2669407,c5fe1817-5163-4e3b-b06a-36d322c6bf57
Островной,Мурманская,"Мурманская обл, г Островной",2177,UTC+3,68.0510344,39.5077846,0a358e8a-d3c4-45e5-b9fc-126092afd6f5
Полярные Зори,Мурманская,"Мурманская обл, г Полярные Зори",15106,UTC+3,67.373084,32.4975636,d70b2917-8cea-4555-a9fe-6d2c72d8d9cc
Полярный,Мурманская,"Мурманская обл, г Полярный",17304,UTC+3,69.1989583,33.4508591,a4ae6202-6ec6-4bc6-abc5-4ecd6ca96d53
Североморск,Мурманская,"Мурманская обл, г Североморск",50076,UTC+3,69.0766801,33.4177759,53e652bc-dd1b-44e1-9ab2-401b04cf3ceb
Снежногорск,Мурманская,"Мурманская обл, г Снежногорск",12698,UTC+3,69.1921409,33.2383502,22e4a0a6-68a6-47bc-a08c-11610ec6231a
Нарьян-Мар,Ненецкий,г Нарьян-Мар,21296,UTC+3,67.6379672,53.0069565,b0122c31-eb1c-40ae-b998-08f9e99a0fa1
Боровичи,Новгородская,"Новгородская обл, г Боровичи",54731,UTC+3,58.3840197,33.9175929,ae2f372e-7df2-400c-95f9-4b0522567634
Валдай,Новгородская,"Новгородская обл, г Валдай",16099,UTC+3,57.9823766,33.2369436,a9075bb6-f2b2-497f-86e1-fe3d9592c075
Великий Новгород,Новгородская,г Великий Новгород,218724,UTC+3,58.5213846,31.2755394,8d0a05bf-3b8a-43e9-ac26-7ce61d7c4560
Малая Вишера,Новгородская,"Новгородская обл, г Малая Вишера",12461,UTC+3,58.8458379,32.2247401,58fbfb62-6e1e-402d-8c8d-c8ec722f4a5a
Окуловка,Новгородская,"Новгородская обл, г Окуловка",12464,UTC+3,58.3910296,33.2901557,b9e66b8f-b027-4e77-8466-55ba3be0b42b
Пестово,Новгородская,"Новгородская обл, г Пестово",15911,UTC+3,58.5973723,35.8143898,4ad123c8-0130-4432-9d6c-e64946f2d647
Сольцы,Новгородская,"Новгородская обл, г Сольцы",10317,UTC+3,58.1201281,30.309351,c2f4a34c-80b4-4aea-a45b-d932909cccc0
Старая Русса,Новгородская,"Новгородская обл, г Старая Русса",32235,UTC+3,57.990737,31.3554897,bc4e8fbc-54dc-4114-9c48-fd7a9b3e2e5c
Холм,Новгородская,"Новгородская обл, г Холм",3829,UTC+3,57.145108,31.1787499,b12ce6eb-00e8-4d54-b309-14569350f346
Чудово,Новгородская,"Новгородская обл, г Чудово",16148,UTC+3,59.1248394,31.6866241,a084418b-c41f-4086-9009-0adb7e9117bf
Великие Луки,Псковская,"Псковская обл, г Великие Луки",98778,UTC+3,56.332208,30.5508641,ca091eae-2c39-4730-b57d-b2fa570f71cb
Гдов,Псковская,"Псковская обл, г Гдов",4379,UTC+3,58.7432429,27.8264809,cdbe4f8f-1a44-4c99-a3c8-06b501a3ad2e
Дно,Псковская,"Псковская обл, г Дно",9061,UTC+3,57.826974,29.9629389,31e4b2e4-ae67-43db-82ea-8728cd5a71c7
Невель,Псковская,"Псковская обл, г Невель",16324,UTC+3,56.0201973,29.9239983,6570fdb6-7602-477e-a783-f186456dabfe
Новоржев,Псковская,"Псковская обл, г Новоржев",3695,UTC+3,57.029807,29.3433083,236c48ca-48c9-471f-8891-0b73ea89bc2b
Новосокольники,Псковская,"Псковская обл, г Новосокольники",8119,UTC+3,56.3408431,30.1527573,af8fb4a0-5d4e-4e0e-94fc-20021da2f67a
Опочка,Псковская,"Псковская обл, г Опочка",11601,UTC+3,56.710725,28.6717519,59c2f176-3b63-4086-bc6c-efa246c64a1e
Остров,Псковская,"Псковская обл, г Остров",21670,UTC+3,57.3451528,28.3437593,67d379ab-16ac-40d0-95c0-f5f1cbeb578d
Печоры,Псковская,"Псковская обл, г Печоры",12308,UTC+3,57.8145817,27.622259,8cb44bcc-4e46-409a-972a-b99a59fcc7e9
Порхов,Псковская,"Псковская обл, г Порхов",10608,UTC+3,57.7765219,29.5436626,c02d55c3-2086-400f-81b7-f1f540f31a87
Псков,Псковская,г Псков,203974,UTC+3,57.8194415,28.3317198,2858811e-448a-482e-9863-e03bf06bb5d4
Пустошка,Псковская,"Псковская обл, г Пустошка",4619,UTC+3,56.3374813,29.3668055,28a7a368-16ab-4ffc-9b3e-4a4c3e16bf74
Пыталово,Псковская,"Псковская обл, г Пыталово",5826,UTC+3,57.0637952,27.9236214,8cfcdc08-f726-4aff-abfa-b20199b32172
Себеж,Псковская,"Псковская обл, г Себеж",6375,UTC+3,56.2908554,28.4724326,749fbd77-ddae-408b-8ad8-154a0a22306a
Санкт-Петербург,Санкт-Петербург,г Санкт-Петербург,4848742,UTC+3,59.9391313,30.3159004,c2deb16a-0330-4f05-821f-1d09c93331e6
Буйнакск,Дагестан,"Респ Дагестан, г Буйнакск",65735,UTC+3,42.8214424,47.1165263,fab58303-fb09-422e-aeb7-6fdb5dfe7941
Дагестанские Огни,Дагестан,"Респ Дагестан, г Дагестанские Огни",30671,UTC+3,42.1152296,48.1939354,8b4a997b-1e70-402a-a56a-e93c81d0ff20
Дербент,Дагестан,"Респ Дагестан, г Дербент",119961,UTC+3,42.058966,48.2907452,1bde5cf4-7943-4b17-9718-2c1d96742be5
Избербаш,Дагестан,"Респ Дагестан, г Избербаш",56301,UTC+3,42.5650962,47.8710051,bf14786f-6c0e-4369-8907-57f9d3fd93ac
Каспийск,Дагестан,"Респ Дагестан, г Каспийск",103914,UTC+3,42.8916007,47.6367066,a8695cce-c623-4451-bb47-2d69ab22092a
Кизилюрт,Дагестан,"Респ Дагестан, г Кизилюрт",36187,UTC+3,43.203825,46.8729636,efc8a6e2-ffab-4d69-a35b-019bfe89745e
Кизляр,Дагестан,"Респ Дагестан, г Кизляр",49169,UTC+3,43.8484083,46.7233699,e18e67f7-e62a-4abe-853c-ffb8e5ab57e1
Махачкала,Дагестан,г Махачкала,577990,UTC+3,42.9849159,47.5047181,727cdf1e-1b70-4e07-8995-9bf7ca9abefb
Хасавюрт,Дагестан,"Респ Дагестан, г Хасавюрт",133929,UTC+3,43.2504665,46.5851292,b10ca6a7-e9c0-4382-b939-4787aaf43a58
Южно-Сухокумск,Дагестан,"Респ Дагестан, г Южно-Сухокумск",10048,UTC+3,44.6602467,45.6499523,733221a2-f789-4dda-a3f4-e41c88b6cfbd
Карабулак,Ингушетия,"Респ Ингушетия, г Карабулак",31081,UTC+3,43.3055248,44.9094582,2c33c72e-642b-4a7e-afe5-982f5adf6b17
Магас,Ингушетия,г Магас,2505,UTC+3,43.1688611,44.8131207,c801edb4-aba2-4e1d-9ab2-69fcbf0aeb9c
Малгобек,Ингушетия,"Респ Ингушетия, г Малгобек",31076,UTC+3,43.5096646,44.5901963,5c318987-0763-4822-9c57-0d55e40fb9d7
Назрань,Ингушетия,"Респ Ингушетия, г Назрань",93357,UTC+3,43.2257841,44.7645779,815566a1-04ea-44a9-b34b-25b70ac9aa9a
Сунжа,Ингушетия,"Респ Ингушетия, г Сунжа",64493,UTC+3,43.3204196,45.0476331,0effcc07-1b12-4570-9951-23523c06c858
Баксан,Кабардино-Балкарская,"Респ Кабардино-Балкарская, г Баксан",36857,UTC+3,43.6819137,43.5345036,67851dfd-e142-451a-b6b1-ea5e9bc7f0c1
Майский,Кабардино-Балкарская,"Респ Кабардино-Балкарская, г Майский",26755,UTC+3,43.6281516,44.0517314,e9f48c52-6cc4-47d9-ba6d-e7b12e8e0871
Нальчик,Кабардино-Балкарская,г Нальчик,240095,UTC+3,43.4845464,43.60713,913a82e3-b671-43d5-97b4-8a08b8ee2d28
Нарткала,Кабардино-Балкарская,"Респ Кабардино-Балкарская, г Нарткала",31679,UTC+3,43.5578075,43.8575925,cb0f531d-4831-41c0-a859-3ad1f2e0f70b
Прохладный,Кабардино-Балкарская,"Респ Кабардино-Балкарская, г Прохладный",59595,UTC+3,43.7589602,44.0102409,22973a33-7a1c-449d-9535-def88bd91ed3
Терек,Кабардино-Балкарская,"Респ Кабардино-Балкарская, г Терек",19170,UTC+3,43.4839358,44.1402161,9886a048-8715-4526-80b1-2f0fd8dd7bdf
Тырныауз,Кабардино-Балкарская,"Респ Кабардино-Балкарская, г Тырныауз",21000,UTC+3,43.3981585,42.9213582,e0ee885d-786e-457e-9568-2def04ee83b0
Чегем,Кабардино-Балкарская,"Респ Кабардино-Балкарская, г Чегем",17988,UTC+3,43.5671525,43.5865792,17bfd906-04ef-45f2-abbb-fcf801d0ba84
Карачаевск,Карачаево-Черкесская,"Респ Карачаево-Черкесская, г Карачаевск",23848,UTC+3,43.7732525,41.9143472,cb390fbd-3149-4ac9-b9fb-6af069d51b71
Теберда,Карачаево-Черкесская,"Респ Карачаево-Черкесская, г Теберда",9097,UTC+3,43.4437731,41.7415142,2edbb310-a924-44a8-a6d0-c9b825214fcf
Усть-Джегута,Карачаево-Черкесская,"Респ Карачаево-Черкесская, г Усть-Джегута",30602,UTC+3,44.0838442,41.9711046,5de40749-195c-445b-b65a-fd1c397d1440
Черкесск,Карачаево-Черкесская,г Черкесск,121439,UTC+3,44.2269425,42.0466704,2a4a7c93-f3f8-4042-8cbf-e04ab64f5e08
Алагир,Северная Осетия - Алания,"Респ Северная Осетия - Алания, г Алагир",20949,UTC+3,43.0417684,44.2199715,e6dcf985-09c1-4ede-ba3d-de714f0a5787
Ардон,Северная Осетия - Алания,"Респ Северная Осетия - Алания, г Ардон",18774,UTC+3,43.1755152,44.2955775,fc26547e-11ce-464b-b4f2-96b37df6f23f
Беслан,Северная Осетия - Алания,"Респ Северная Осетия - Алания, г Беслан",36724,UTC+3,43.1937529,44.5338707,cbf3eb9d-f86c-4dbb-ba9e-f9f6521b096f
Владикавказ,Северная Осетия - Алания,г Владикавказ,311635,UTC+3,43.020588,44.6819182,20ea2341-4f49-4c5c-a9dc-a54688c8cc61
Дигора,Северная Осетия - Алания,"Респ Северная Осетия - Алания, г Дигора",10856,UTC+3,43.1567628,44.1549483,aa883f13-ea3c-4b7f-9f3c-309a2b38db04
Моздок,Северная Осетия - Алания,"Респ Северная Осетия - Алания, г Моздок",38748,UTC+3,43.7471342,44.6569607,654ce513-3c99-414d-88b8-846097cc9ae3
Благодарный,Ставропольский,"Ставропольский край, г Благодарный",32736,UTC+3,45.0989782,43.4306455,0e527607-a1cd-462c-9b85-f33ddea64ad0
Буденновск,Ставропольский,"Ставропольский край, г Буденновск",64628,UTC+3,44.7816067,44.1650339,bcca8fda-282d-4a90-9303-7a37a8197242
Георгиевск,Ставропольский,"Ставропольский край, г Георгиевск",72126,UTC+3,44.1485694,43.4739851,ea88bcba-c562-438a-9115-8b32426b0c8e
Ессентуки,Ставропольский,"Ставропольский край, г Ессентуки",100969,UTC+3,44.0446186,42.8588653,0ca8280c-89cb-4c81-8a99-ae10a98416bc
Железноводск,Ставропольский,"Ставропольский край, г Железноводск",24496,UTC+3,44.1320568,43.0306461,f231a6e9-5631-44a6-80bf-585e9491165e
Зеленокумск,Ставропольский,"Ставропольский край, г Зеленокумск",35790,UTC+3,44.4032668,43.8841877,dcfa008b-e058-4be1-a409-18fc2b2e570f
Изобильный,Ставропольский,"Ставропольский край, г Изобильный",40546,UTC+3,45.3684296,41.708702,82d67979-76e6-4c48-b5b0-18c0b969114c
Ипатово,Ставропольский,"Ставропольский край, г Ипатово",26055,UTC+3,45.7181751,42.8970206,589a16ac-fb2e-46f9-b59a-98c18d34d908
Кисловодск,Ставропольский,"Ставропольский край, г Кисловодск",128502,UTC+3,43.9052044,42.7168721,82551e9e-14a4-4414-ad60-6cc944763ff3
Лермонтов,Ставропольский,"Ставропольский край, г Лермонтов",22540,UTC+3,44.1054107,42.973135,3808db7f-f793-40d0-ad74-691c158bc2de
Минеральные Воды,Ставропольский,"Ставропольский край, г Минеральные Воды",76715,UTC+3,44.2087273,43.138408,0be84f75-bbb5-4471-9d0c-dfa932f5df7d
Михайловск,Ставропольский,"Ставропольский край, г Михайловск",71018,UTC+3,45.1297323,42.0288443,51007e5c-e430-4f18-912c-f88c7e73698d
Невинномысск,Ставропольский,"Ставропольский край, г Невинномысск",118351,UTC+3,44.6226031,41.9476723,ff894fb7-acb4-4edf-bb48-c5349d89579b
Нефтекумск,Ставропольский,"Ставропольский край, г Нефтекумск",27700,UTC+3,44.7544552,44.9865347,47a5b97a-5cc1-4fa4-893f-0041590dd823
Новоалександровск,Ставропольский,"Ставропольский край, г Новоалександровск",26759,UTC+3,45.4932733,41.2153996,a0194045-d9a6-4593-9502-133cae983a3f
Новопавловск,Ставропольский,"Ставропольский край, г Новопавловск",26556,UTC+3,43.9617097,43.6342865,d72c4e6c-59e6-4c02-9372-61f980f79cbd
Пятигорск,Ставропольский,"Ставропольский край, г Пятигорск",142397,UTC+3,44.041091,43.0661553,9b0efbd0-22bb-400d-86db-ddc69b9939d9
Светлоград,Ставропольский,"Ставропольский край, г Светлоград",38520,UTC+3,45.328659,42.8565714,019979ae-6056-4ed8-98ef-48bded318dd2
Ставрополь,Ставропольский,г Ставрополь,398266,UTC+3,45.044516,41.9689655,2a1c7bdb-05ea-492f-9e1c-b3999f79dcbc
Аргун,Чеченская,"Респ Чеченская, г Аргун",29528,UTC+3,43.2916774,45.8723105,3672454d-2697-4ce1-9666-cc9c744ba5c5
Грозный,Чеченская,г Грозный,271596,UTC+3,43.3180145,45.698291,a2072dc5-45be-4db3-ab13-10784ba8b2ae
Гудермес,Чеченская,"Респ Чеченская, г Гудермес",45643,UTC+3,43.3519142,46.1035645,ab370c6d-8fd0-4e6b-9491-d83daaa829c9
Курчалой,Чеченская,"Респ Чеченская, г Курчалой",25672,UTC+3,43.2046547,46.0889364,37464bf9-053a-4c84-bc16-b9f202749794
Урус-Мартан,Чеченская,"Респ Чеченская, г Урус-Мартан",49071,UTC+3,43.120175,45.539276,eb208b95-1f50-4290-a9c9-46909aea49a0
Шали,Чеченская,"Респ Чеченская, г Шали",47715,UTC+3,43.1488691,45.9009629,f206e5a7-d074-44cf-a0f3-a9ca855969d2
Горно-Алтайск,Алтай,г Горно-Алтайск,62861,UTC+7,51.9581028,85.9603235,0839d751-b940-4d3d-afb6-5df03fdd7791
Алейск,Алтайский,"Алтайский край, г Алейск",28528,UTC+7,52.4922513,82.7793606,ae716080-f27b-40b6-a555-cf8b518e849e
Барнаул,Алтайский,г Барнаул,635585,UTC+7,53.3479968,83.7798064,d13945a8-7017-46ab-b1e6-ede1e89317ad
Белокуриха,Алтайский,"Алтайский край, г Белокуриха",15072,UTC+7,51.996152,84.9839604,e4edca96-9b86-4cac-8c7f-cc93d9ba4cd1
Бийск,Алтайский,"Алтайский край, г Бийск",203826,UTC+7,52.5393864,85.2138453,52f876f6-cb1d-4f23-a22f-b692609fc1e0
Горняк,Алтайский,"Алтайский край, г Горняк",13040,UTC+7,50.9979622,81.4643358,094b3627-2699-4782-8492-4d82aac71958
Заринск,Алтайский,"Алтайский край, г Заринск",47035,UTC+7,53.7063476,84.9315081,142e04ef-dec1-44fa-b553-fac215764374
Змеиногорск,Алтайский,"Алтайский край, г Змеиногорск",10569,UTC+7,51.1581094,82.1872547,e7001b8f-d104-4873-96d4-66339f5e530a
Камень-на-Оби,Алтайский,"Алтайский край, г Камень-на-Оби",41787,UTC+7,53.7913974,81.3545053,810ca9c7-f10e-4def-9c48-f0aa83168ca7
Новоалтайск,Алтайский,"Алтайский край, г Новоалтайск",73134,UTC+7,53.4119759,83.9311069,aa288d9f-4b2a-42a6-97f0-3502dddfa383
Рубцовск,Алтайский,"Алтайский край, г Рубцовск",146386,UTC+7,51.5012067,81.2078695,65db5c88-c65c-43f0-9c21-13e15a032d4a
Славгород,Алтайский,"Алтайский край, г Славгород",30370,UTC+7,52.999463,78.6459232,94ae181d-b153-4dd1-8a2f-12852919875f
Яровое,Алтайский,"Алтайский край, г Яровое",18085,UTC+7,52.9252146,78.5729775,e07d57ed-22ce-4020-b59c-f7aae6f091bf
Алзамай,Иркутская,"Иркутская обл, Нижнеудинский р-н, г Алзамай",6751,UTC+8,55.5551233,98.6643699,a7812582-bd5d-4d13-b284-d2b052265e9d
Ангарск,Иркутская,"Иркутская обл, г Ангарск",233765,UTC+8,52.544879,103.888543,82b6b7c8-82a4-44b2-8bc7-691373706b89
Байкальск,Иркутская,"Иркутская обл, Слюдянский р-н, г Байкальск",13589,UTC+8,51.5230393,104.1487532,cd4477e8-3335-442a-a0a4-9429a52f5c52
Бирюсинск,Иркутская,"Иркутская обл, Тайшетский р-н, г Бирюсинск",8981,UTC+8,55.9609167,97.8205348,5b646190-2037-409f-bf0f-6fb8194a0581
Бодайбо,Иркутская,"Иркутская обл, г Бодайбо",15331,UTC+8,57.8468636,114.1866287,8ace6ae4-7a35-494a-bfbd-9a743a929c39
Братск,Иркутская,"Иркутская обл, г Братск",246348,UTC+8,56.1513108,101.6340035,bdf6b629-b33e-4cfa-b4b2-7f693e1d821c
Вихоревка,Иркутская,"Иркутская обл, Братский р-н, г Вихоревка",22528,UTC+8,56.1208145,101.1702926,04bc8726-0523-4aeb-8450-fe07ff425372
Железногорск-Илимский,Иркутская,"Иркутская обл, г Железногорск-Илимский",26134,UTC+8,56.5847888,104.114275,31ba5d12-ae5b-4cc0-8892-2a504423ee61
Зима,Иркутская,"Иркутская обл, г Зима",32522,UTC+8,53.920693,102.0491772,7c3452ac-3953-4b78-a80c-64ec839620a6
Иркутск,Иркутская,г Иркутск,587225,UTC+8,52.2864036,104.2807466,8eeed222-72e7-47c3-ab3a-9a553c31cf72
Киренск,Иркутская,"Иркутская обл, г Киренск",12652,UTC+8,57.7756595,108.1109412,1ea67233-631c-49bf-8d7c-1a17fc785e97
Нижнеудинск,Иркутская,"Иркутская обл, г Нижнеудинск",37056,UTC+8,54.8968931,99.0314056,5d596a21-da89-4820-91ef-6ce3940a0c9f
Саянск,Иркутская,"Иркутская обл, г Саянск",40786,UTC+8,54.1107238,102.18015,c21b5e04-ce0f-4f98-b0ac-0ceabc531212
Свирск,Иркутская,"Иркутская обл, г Свирск",13649,UTC+8,53.0842668,103.3364093,17e498bd-5f9e-4221-8998-5fa24a35ed2e
Слюдянка,Иркутская,"Иркутская обл, г Слюдянка",18542,UTC+8,51.6563983,103.7187545,31802bef-b635-49b2-866d-1d1006e3081e
Тайшет,Иркутская,"Иркутская обл, г Тайшет",35481,UTC+8,55.9405334,98.0030145,945ac8e1-b529-4cec-afda-f92c6a6b0f70
Тулун,Иркутская,"Иркутская обл, г Тулун",44603,UTC+8,54.557162,100.5780603,869c2c69-e8cd-43ae-9596-e0be50c0fcfe
Усолье-Сибирское,Иркутская,"Иркутская обл, г Усолье-Сибирское",83364,UTC+8,52.7565808,103.6388109,ac680034-f7da-4bd8-8374-a5c97aa09516
Усть-Илимск,Иркутская,"Иркутская обл, г Усть-Илимск",86591,UTC+8,57.9430504,102.7415734,78d11295-77b5-4ac4-b128-582e2989c0a5
Усть-Кут,Иркутская,"Иркутская обл, г Усть-Кут",45061,UTC+8,56.7928178,105.7757343,cfb0a55a-3314-42bf-b3d8-5ed5368abdd6
Черемхово,Иркутская,"Иркутская обл, г Черемхово",52650,UTC+8,53.1369095,103.0901268,f05b68c4-f1c7-4c3d-b557-f1f44a57b85f
Шелехов,Иркутская,"Иркутская обл, г Шелехов",47960,UTC+8,52.2102538,104.0973294,c727ac3a-e05c-4b81-b8e1-9b1003c28595
Анжеро-Судженск,Кемеровская область - Кузбасс,"Кемеровская область - Кузбасс, г Анжеро-Судженск",76669,UTC+7,56.0786281,86.0201278,8a5314a4-903e-475c-a4db-8f03db3b793f
Белово,Кемеровская область - Кузбасс,"Кемеровская область - Кузбасс, г Белово",76752,UTC+7,54.4220968,86.3037373,1346744e-8a64-4712-8939-bb84a1692874
Березовский,Кемеровская область - Кузбасс,"Кемеровская область - Кузбасс, г Березовский",47292,UTC+7,55.6693513,86.2744459,ef6bac92-b712-42ba-942b-515b36b9a32c
Гурьевск,Кемеровская область - Кузбасс,"Кемеровская область - Кузбасс, г Гурьевск",24816,UTC+7,54.2859263,85.9475985,9924881d-bc20-4e72-8c2e-e4cf415c93c1
Калтан,Кемеровская область - Кузбасс,"Кемеровская область - Кузбасс, г Калтан",21893,UTC+7,53.5210919,87.2771636,5000e677-7d3c-4eec-b01d-f3f192abbd41
Кемерово,Кемеровская область - Кузбасс,г Кемерово,532884,UTC+7,55.3910651,86.0467781,94bb19a3-c1fa-410b-8651-ac1bf7c050cd
Киселевск,Кемеровская область - Кузбасс,"Кемеровская область - Кузбасс, г Киселевск",98382,UTC+7,54.0059999,86.6366116,36122f01-1666-42e0-9c65-937787e8ca45
Ленинск-Кузнецкий,Кемеровская область - Кузбасс,"Кемеровская область - Кузбасс, г Ленинск-Кузнецкий",101666,UTC+7,54.6674492,86.1797324,cf600ae8-e376-42ae-bf7c-5aa1875dcd28
Мариинск,Кемеровская область - Кузбасс,"Кемеровская область - Кузбасс, г Мариинск",40522,UTC+7,56.2127383,87.7454924,34a2e393-69d3-4258-8daf-a6290a14b06e
Междуреченск,Кемеровская область - Кузбасс,"Кемеровская область - Кузбасс, г Междуреченск",101995,UTC+7,53.6865289,88.0702754,c6a7e590-04b4-4a01-85fc-b61b63711bba
Мыски,Кемеровская область - Кузбасс,"Кемеровская область - Кузбасс, г Мыски",43029,UTC+7,53.7125695,87.8055646,070a8e7b-038f-48c8-9eed-16a6c03ab899
Новокузнецк,Кемеровская область - Кузбасс,"Кемеровская область - Кузбасс, г Новокузнецк",547885,UTC+7,53.794315,87.2142745,b28b6f6f-1435-444e-95a6-68c499b0d27a
Осинники,Кемеровская область - Кузбасс,"Кемеровская область - Кузбасс, г Осинники",45997,UTC+7,53.5988055,87.3371272,1efff7c4-448a-48c5-b476-c803b4d36842
Полысаево,Кемеровская область - Кузбасс,"Кемеровская область - Кузбасс, г Полысаево",27624,UTC+7,54.6055,86.2809208,34ac1b24-f541-4279-abfb-466f80ed1f7b
Прокопьевск,Кемеровская область - Кузбасс,"Кемеровская область - Кузбасс, г Прокопьевск",210150,UTC+7,53.8604265,86.7183577,2d8b9d01-1c4f-4987-8a0b-1eb5080c1f38
Салаир,Кемеровская область - Кузбасс,"Кемеровская область - Кузбасс, Гурьевский р-н, г Салаир",8263,UTC+7,54.2351735,85.8030733,e7459805-4536-4037-9113-4b9b53893807
Тайга,Кемеровская область - Кузбасс,"Кемеровская область - Кузбасс, г Тайга",25330,UTC+7,56.0622131,85.6207182,4da6f430-f531-42f5-9176-1f6cf7ba6367
Таштагол,Кемеровская область - Кузбасс,"Кемеровская область - Кузбасс, г Таштагол",23114,UTC+7,52.759313,87.8476546,6be8ac27-9aa0-4784-ba97-a15f066995d9
Топки,Кемеровская область - Кузбасс,"Кемеровская область - Кузбасс, г Топки",28642,UTC+7,55.2764707,85.6152619,5a6d8be0-aa32-4344-9a4d-89fdb4c94ae8
Юрга,Кемеровская область - Кузбасс,"Кемеровская область - Кузбасс, г Юрга",81536,UTC+7,55.7202694,84.8886399,988289f5-d6d0-40d5-a483-55983e11c033
Артемовск,Красноярский,"Красноярский край, Курагинский р-н, г Артемовск",2180,UTC+7,54.3473075,93.4358377,d0d7a2fa-5bdc-4944-8047-75e80e4e883c
Ачинск,Красноярский,"Красноярский край, г Ачинск",109156,UTC+7,56.253907,90.4794397,c3689d32-dea5-49c8-b69b-b8d2daa1d36b
Боготол,Красноярский,"Красноярский край, г Боготол",21029,UTC+7,56.2098468,89.5299336,cb56cf76-4a34-428d-8244-a802414d5fac
Бородино,Красноярский,"Красноярский край, г Бородино",17423,UTC+7,55.9054121,94.9020967,78d7587f-ef26-48dc-81c6-d3ff445c9c8b
Дивногорск,Красноярский,"Красноярский край, г Дивногорск",28271,UTC+7,55.9576784,92.3800687,76cc6918-6b7c-42b4-80da-4635d97d0da1
Дудинка,Красноярский,"Красноярский край, г Дудинка",22207,UTC+7,69.4031364,86.1907218,80b72eaa-bcf7-4759-b291-09ee5e8b3377
Енисейск,Красноярский,"Красноярский край, г Енисейск",18769,UTC+7,58.4485261,92.1651083,6eb21d40-5098-49bc-8b08-ac1a2805d22b
Железногорск,Красноярский,"Красноярский край, г Железногорск",85559,UTC+7,56.2529035,93.532273,e532b3c3-d300-4585-ada6-40e7900c2abf
Заозерный,Красноярский,"Красноярский край, Рыбинский р-н, г Заозерный",10683,UTC+7,55.9617752,94.7091491,1f8ea2c9-d6f7-4c30-b76d-2aa81640732e
Зеленогорск,Красноярский,"Красноярский край, г Зеленогорск",66018,UTC+7,56.1131564,94.5888103,38f208d6-6f29-4d30-b826-b42e8beecc67
Игарка,Красноярский,"Красноярский край, Туруханский р-н, г Игарка",6183,UTC+7,67.4666901,86.5812794,59a84d36-af93-4e61-aac4-999431645666
Иланский,Красноярский,"Красноярский край, г Иланский",16108,UTC+7,56.2374037,96.067267,8fa29485-6bce-450c-8c5c-26b8ab682bde
Канск,Красноярский,"Красноярский край, г Канск",94230,UTC+7,56.2051282,95.7051096,75917770-c4cb-44d8-afcc-8a6d395c3bc2
Кодинск,Красноярский,"Красноярский край, г Кодинск",14835,UTC+7,58.6032644,99.1797962,a97aba0e-9624-4e6c-8296-4e5fa103ddf0
Красноярск,Красноярский,г Красноярск,973826,UTC+7,56.0093879,92.8524806,9b968c73-f4d4-4012-8da8-3dacd4d4c1bd
Лесосибирск,Красноярский,"Красноярский край, г Лесосибирск",61146,UTC+7,58.221681,92.5037872,2ddd48d6-e95b-4972-a34e-8586ed507763
Минусинск,Красноярский,"Красноярский край, г Минусинск",71171,UTC+7,53.7104586,91.6872907,5cfaf0c0-8f59-4321-9a5b-4b1c51b3779f
Назарово,Красноярский,"Красноярский край, г Назарово",52829,UTC+7,56.0113799,90.4168775,ab0a1754-5ba1-48bb-8960-475c7fbc9feb
Норильск,Красноярский,"Красноярский край, г Норильск",175301,UTC+7,69.3489978,88.2009846,d301a980-4a45-4066-9a20-4e783856a562
Сосновоборск,Красноярский,"Красноярский край, г Сосновоборск",33090,UTC+7,56.1202647,93.3354121,a139c8ba-831e-4ee5-87a9-1eead6984288
Ужур,Красноярский,"Красноярский край, г Ужур",16079,UTC+7,55.3141969,89.8333918,2730ee56-f5f7-472d-9e58-04c0b692bb8d
Уяр,Красноярский,"Красноярский край, г Уяр",12666,UTC+7,55.8131263,94.3282601,aab80404-c16d-43b2-92d4-eb06639f37c2
Шарыпово,Красноярский,"Красноярский край, г Шарыпово",38570,UTC+7,55.5389739,89.1801044,e21e9175-86f9-4e24-b129-abdee0f956dc
Барабинск,Новосибирская,"Новосибирская обл, Барабинский р-н, г Барабинск",30250,UTC+7,55.35146,78.3464506,0133a54d-617a-4682-8885-e22c85588be8
Бердск,Новосибирская,"Новосибирская обл, г Бердск",98809,UTC+7,54.7582156,83.1070605,fd0191f4-4687-42d9-be64-4ebc7824bd08
Болотное,Новосибирская,"Новосибирская обл, г Болотное",16969,UTC+7,55.6692421,84.3906889,7e18e6d0-f7e1-4ada-a845-cc7ab5431a1a
Искитим,Новосибирская,"Новосибирская обл, г Искитим",60072,UTC+7,54.6267603,83.2951244,6965fcac-b7e4-4cab-ab35-a591ed65edf5
Карасук,Новосибирская,"Новосибирская обл, г Карасук",28929,UTC+7,53.7343189,78.0422967,23d59dbe-1aed-4564-84da-fe921f9ce294
Каргат,Новосибирская,"Новосибирская обл, г Каргат",10620,UTC+7,55.1945666,80.2829495,f3a2db25-007e-4830-b460-e763ced3a642
Куйбышев,Новосибирская,"Новосибирская обл, Куйбышевский р-н, г Куйбышев",47278,UTC+7,55.4685094,78.3242048,1b70e712-092e-4c45-9984-af3a2c7cfdd7
Купино,Новосибирская,"Новосибирская обл, г Купино",15448,UTC+7,54.366055,77.2973368,b1467e32-e362-4e64-b5d7-0d7deba77505
Новосибирск,Новосибирская,г Новосибирск,1498921,UTC+7,55.028191,82.9211489,8dea00e3-9aab-4d8e-887c-ef2aaa546456
Обь,Новосибирская,"Новосибирская обл, г Обь",26137,UTC+7,54.9945576,82.6937181,8571e389-8c43-4c36-afae-b532d078c928
Татарск,Новосибирская,"Новосибирская обл, Татарский р-н, г Татарск",26114,UTC+7,55.2146167,75.9739914,17f3169d-63c5-4c04-9395-298333f7e0f4
Тогучин,Новосибирская,"Новосибирская обл, г Тогучин",21531,UTC+7,55.2251631,84.4104118,579da04d-579c-4ef7-8f84-aa63088be55b
Черепаново,Новосибирская,"Новосибирская обл, г Черепаново",19346,UTC+7,54.2206476,83.3724521,e849dc37-0f3b-4a66-8f0e-780c75927025
Чулым,Новосибирская,"Новосибирская обл, г Чулым",11964,UTC+7,55.0906867,80.9592508,bd136162-7404-4915-b456-239426f78b94
Исилькуль,Омская,"Омская обл, г Исилькуль",25905,UTC+6,54.9096002,71.2816284,097baa31-3a80-4fea-b34b-c613fbd8730e
Калачинск,Омская,"Омская обл, г Калачинск",24000,UTC+6,55.0598155,74.5653644,fc59f020-5c8e-45e8-baf5-c9069a61e4a9
Называевск,Омская,"Омская обл, г Называевск",12119,UTC+6,55.5689323,71.3503426,db2e2372-fed9-426b-a861-e64e2201f225
Омск,Омская,г Омск,1154000,UTC+6,54.9848566,73.3674517,140e31da-27bf-4519-9ea0-6185d681d44e
Тара,Омская,"Омская обл, г Тара",26664,UTC+6,56.9160511,74.3649194,191443b9-a283-4368-a09d-0a98f16c7dc5
Тюкалинск,Омская,"Омская обл, г Тюкалинск",12050,UTC+6,55.8703415,72.1954747,10959db6-8297-49eb-93e9-2bb7641898ce
Асино,Томская,"Томская обл, г Асино",25614,UTC+7,56.9907085,86.1765257,8540435c-3516-4d00-a7e5-213165da85e5
Кедровый,Томская,"Томская обл, г Кедровый",2451,UTC+7,57.561869,79.5677821,59cb7e41-b681-40c8-97f2-13374a397867
Колпашево,Томская,"Томская обл, г Колпашево",24126,UTC+7,58.3114253,82.9025829,c29a885f-a8c8-43b4-aecd-d439d36f5e47
Северск,Томская,"Томская обл, г Северск",108466,UTC+7,56.6031285,84.8809926,53c22352-eb6f-4163-a4d1-385d64561d2f
Стрежевой,Томская,"Томская обл, г Стрежевой",42216,UTC+7,60.732895,77.604122,0a0fe1fc-8aab-4ff3-a2a3-971ee4fcd27f
Томск,Томская,г Томск,522940,UTC+7,56.4845804,84.9481582,e3b0eae8-a4ce-4779-ae04-5c0797de66be
Ак-Довурак,Тыва,"Респ Тыва, г Ак-Довурак",13469,UTC+7,51.178452,90.5985129,7e4932c1-2db8-4fee-9997-655d837e70e1
Кызыл,Тыва,г Кызыл,109906,UTC+7,51.7191047,94.4376882,8df8c56f-a46e-438f-a85b-a9b18ad4fc77
Туран,Тыва,"Респ Тыва, г Туран",4988,UTC+7,52.1449619,93.9173396,224d11db-b006-4774-92eb-7fa5b870acbe
Чадан,Тыва,"Респ Тыва, г Чадан",9037,UTC+7,51.2844502,91.5788609,2f1dec2a-2206-47fa-9620-1db182968112
Шагонар,Тыва,"Респ Тыва, г Шагонар",10958,UTC+7,51.5346393,92.9199675,a2095706-c501-479c-903a-695b78af1f36
Абаза,Хакасия,"Респ Хакасия, г Абаза",17111,UTC+7,52.6516647,90.0885686,a369b520-09b4-49b2-b28c-61c9146153e6
Абакан,Хакасия,г Абакан,165183,UTC+7,53.7223325,91.4436721,42a02e11-a337-4d50-8596-fc76dae7c62a
Саяногорск,Хакасия,"Респ Хакасия, г Саяногорск",49889,UTC+7,53.1008083,91.4122454,f89db729-bbfa-4d64-b8d5-ecafbec0733d
Сорск,Хакасия,"Респ Хакасия, г Сорск",12140,UTC+7,54.0002888,90.2594446,bf626532-9e6c-4365-801e-c1d297ab40f0
Черногорск,Хакасия,"Респ Хакасия, г Черногорск",72117,UTC+7,53.8259342,91.3260229,2e3ec6d8-3835-4c57-9fbc-7e61b58a03a3
Далматово,Курганская,"Курганская обл, г Далматово",13913,UTC+5,56.262114,62.9387011,7a5390a0-3cde-4616-92f4-8f59b9a4ad5c
Катайск,Курганская,"Курганская обл, г Катайск",14017,UTC+5,56.290809,62.5800359,a0d524d7-5863-4a73-be5b-c165ad2f5e74
Курган,Курганская,г Курган,333640,UTC+5,55.4443883,65.3161963,3bbda77d-ba3f-4457-9d44-c440815cda89
Куртамыш,Курганская,"Курганская обл, г Куртамыш",17098,UTC+5,54.9368539,64.4203722,167681ea-0c54-48e2-8c4b-c03f71c9c248
Макушино,Курганская,"Курганская обл, г Макушино",8337,UTC+5,55.2153947,67.2451705,fe024a51-2da6-4ce6-b727-493a829741ad
Петухово,Курганская,"Курганская обл, г Петухово",11291,UTC+5,55.0650077,67.8873408,a476869f-895d-4764-8c88-c406a092f124
Шадринск,Курганская,"Курганская обл, г Шадринск",77744,UTC+5,56.0870344,63.6297182,7870abeb-8b0f-4899-920b-3ab8ff6024c0
Шумиха,Курганская,"Курганская обл, г Шумиха",17821,UTC+5,55.2280246,63.2901272,79685d02-4ac3-42a0-905d-f123918ca296
Щучье,Курганская,"Курганская обл, г Щучье",10971,UTC+5,55.2087637,62.7478548,a7b4ee16-32cf-4f35-b1c7-f7ab4e458823
Алапаевск,Свердловская,"Свердловская обл, г Алапаевск",38198,UTC+5,57.8475571,61.6693817,a4ab722e-453a-4aed-bb73-728a05e2e27f
Арамиль,Свердловская,"Свердловская обл, Сысертский р-н, г Арамиль",14227,UTC+5,56.694632,60.8343125,c99ffa11-6b7e-4040-9f9e-baa1eeca8a91
Артемовский,Свердловская,"Свердловская обл, г Артемовский",32878,UTC+5,57.3384177,61.8947443,fdc6b0ad-4096-43e7-a2e9-16404d2e1f68
Асбест,Свердловская,"Свердловская обл, г Асбест",70067,UTC+5,57.0052277,61.4581156,f5fb13f3-c7d2-4075-821b-9cca03f1ae12
Березовский,Свердловская,"Свердловская обл, г Березовский",51583,UTC+5,56.9095924,60.8180907,adf5df2b-2c2e-45a9-b971-05550353cf43
Богданович,Свердловская,"Свердловская обл, Богдановичский р-н, г Богданович",31752,UTC+5,56.7764795,62.0463679,0c5ca223-c100-4d91-b89b-33a59ba2dc69
Верхний Тагил,Свердловская,"Свердловская обл, г Верхний Тагил",11843,UTC+5,57.3763758,59.9517653,e76b32c8-a93e-4d3f-bae2-282dc900954a
Верхняя Пышма,Свердловская,"Свердловская обл, г Верхняя Пышма",58707,UTC+5,56.9758903,60.5650383,061cd8e0-b7bd-4a31-944e-a6e3da93631d
Верхняя Салда,Свердловская,"Свердловская обл, г Верхняя Салда",46240,UTC+5,58.0465803,60.5560164,744462fb-a17d-43be-b71e-e7ecbd687561
Верхняя Тура,Свердловская,"Свердловская обл, г Верхняя Тура",9468,UTC+5,58.3643685,59.8265235,4ffc4d96-d8fb-49c8-9e36-0989968d06e5
Верхотурье,Свердловская,"Свердловская обл, г Верхотурье",8815,UTC+5,58.8622073,60.8103945,6a688b13-5231-4d5e-b5eb-ee14da03ac10
Волчанск,Свердловская,"Свердловская обл, г Волчанск",10008,UTC+5,59.9351707,60.0798618,68edcd30-0b57-4699-a196-343b80d23223
Дегтярск,Свердловская,"Свердловская обл, г Дегтярск",15521,UTC+5,56.7048206,60.079138,079bd9a9-7a84-4e6e-8a69-e73433e51e41
Екатеринбург,Свердловская,г Екатеринбург,1377738,UTC+5,56.8385216,60.6054911,2763c110-cb8b-416a-9dac-ad28a55b4402
Заречный,Свердловская,"Свердловская обл, г Заречный",26803,UTC+5,56.8102931,61.3380029,8018ae42-55a5-4297-a126-b482aee0b634
Ивдель,Свердловская,"Свердловская обл, г Ивдель",17764,UTC+5,60.6944496,60.4245069,c32d06c4-cca2-42f4-a3b3-b2fee48b9585
Ирбит,Свердловская,"Свердловская обл, г Ирбит",38352,UTC+5,57.6838362,63.057675,4a90bd67-7682-4012-a0c5-09865b9d08a0
Каменск-Уральский,Свердловская,"Свердловская обл, г Каменск-Уральский",174710,UTC+5,56.414962,61.9188674,ecc16584-9814-44d7-a0f3-c79601caa734
Камышлов,Свердловская,"Свердловская обл, г Камышлов",26875,UTC+5,56.8465034,62.7119766,ac2abd40-bb9b-41df-abd8-a319afd88f00
Карпинск,Свердловская,"Свердловская обл, г Карпинск",29118,UTC+5,59.7665925,60.0011703,a695f868-8b1d-412a-b011-3e1eb265aad5
Качканар,Свердловская,"Свердловская обл, г Качканар",42563,UTC+5,58.7051762,59.4839155,c6d37528-b353-43eb-81d8-64a4fd1612f5
Кировград,Свердловская,"Свердловская обл, г Кировград",21959,UTC+5,57.4299433,60.0624051,dd3f07bd-0109-47e0-8a0a-64928436beed
Краснотурьинск,Свердловская,"Свердловская обл, г Краснотурьинск",59701,UTC+5,59.7636635,60.1934525,59b1c816-7f98-4707-b5e2-c6193fff8923
Красноуральск,Свердловская,"Свердловская обл, г Красноуральск",24973,UTC+5,58.348651,60.0408764,3c6a6e0c-29d7-409b-9d2a-135994cf5e97
Красноуфимск,Свердловская,"Свердловская обл, г Красноуфимск",39765,UTC+5,56.612387,57.7636637,ddb355ab-7c2a-4f86-b388-6afbd81a7e73
Кушва,Свердловская,"Свердловская обл, г Кушва",33027,UTC+5,58.2826013,59.7645766,c2b7db39-9ef3-4d9d-a109-a3870b583d45
Лесной,Свердловская,"Свердловская обл, г Лесной",52464,UTC+5,58.6348516,59.7981565,26c6f82c-8503-4c38-9009-52815c8f4a9b
Михайловск,Свердловская,"Свердловская обл, Нижнесергинский р-н, г Михайловск",9215,UTC+5,56.4370039,59.1137316,177c10d7-f36f-449e-a94b-5f7f45a0dbc8
Невьянск,Свердловская,"Свердловская обл, г Невьянск",25147,UTC+5,57.49131,60.2183429,aedb1d40-4877-49c6-8bcb-e2ec6b6cb410
Нижние Серги,Свердловская,"Свердловская обл, г Нижние Серги",11217,UTC+5,56.6544959,59.2953035,9f066e0f-7799-4eb9-a301-ef12719d7c03
Нижний Тагил,Свердловская,"Свердловская обл, г Нижний Тагил",361883,UTC+5,57.910126,59.9812853,cc73d6af-6e2e-4a1f-be8e-682c289b0b57
Нижняя Салда,Свердловская,"Свердловская обл, г Нижняя Салда",17969,UTC+5,58.0748272,60.7025418,b4326e03-bab5-4188-a8c1-97d69858c514
Нижняя Тура,Свердловская,"Свердловская обл, г Нижняя Тура",21596,UTC+5,58.6309267,59.8520344,5591594f-f2a4-49b0-a3bc-22307f192c4e
Новая Ляля,Свердловская,"Свердловская обл, г Новая Ляля",12400,UTC+5,59.0538977,60.5944825,afff2611-ca9b-4e0e-9690-f5d13b7a7535
Новоуральск,Свердловская,"Свердловская обл, г Новоуральск",91813,UTC+5,57.2472567,60.0956714,22fbcef5-5cab-4ef2-9cb5-fddd1479bc8e
Первоуральск,Свердловская,"Свердловская обл, г Первоуральск",149800,UTC+5,56.9080085,59.942926,45bad628-61b7-4445-b62a-fa4c7bc71ccd
Полевской,Свердловская,"Свердловская обл, г Полевской",64316,UTC+5,56.4956952,60.2365298,2a3b4b10-7035-4af5-9bbd-409c42b51eb7
Ревда,Свердловская,"Свердловская обл, г Ревда",61713,UTC+5,56.7986319,59.9071591,b1a4b393-ac99-4447-a11d-c3b454fa3d8e
Реж,Свердловская,"Свердловская обл, г Реж",38709,UTC+5,57.3717477,61.3833842,e40dd081-584b-435c-b8ed-d44ab7854729
Североуральск,Свердловская,"Свердловская обл, г Североуральск",29279,UTC+5,60.1533109,59.9525245,862dddf0-0479-4ffb-bc2c-ee83d598e855
Серов,Свердловская,"Свердловская обл, г Серов",99381,UTC+5,59.6047724,60.5753882,591f3e74-079f-42ff-a155-f01c9dc363ae
Среднеуральск,Свердловская,"Свердловская обл, г Среднеуральск",20357,UTC+5,56.9918901,60.4771018,7c470adb-7d3d-42a1-9190-8f3fd05f710d
Сухой Лог,Свердловская,"Свердловская обл, Сухоложский р-н, г Сухой Лог",34836,UTC+5,56.9076193,62.0358093,9e41e6fc-a2a3-4ee4-9f60-045cf22d45d0
Сысерть,Свердловская,"Свердловская обл, г Сысерть",20594,UTC+5,56.5005715,60.8190003,93fdb310-5e08-43ee-aabe-42e39a950928
Тавда,Свердловская,"Свердловская обл, г Тавда",35421,UTC+5,58.0434672,65.274217,e3d340e7-15af-436c-a0f0-abfaf2108fca
Талица,Свердловская,"Свердловская обл, г Талица",18339,UTC+5,57.0122687,63.7320757,12a6ddb3-4f9e-44bf-9e24-77eb72cae2ed
Туринск,Свердловская,"Свердловская обл, г Туринск",17990,UTC+5,58.0393524,63.6981973,45a7312f-5c8b-46d9-b7ff-46d0efa63366
Заводоуковск,Тюменская,"Тюменская обл, г Заводоуковск",25657,UTC+5,56.5027463,66.5513613,10c58caf-f8b8-44b6-99b9-5cf25f681fcf
Ишим,Тюменская,"Тюменская обл, г Ишим",69567,UTC+5,56.1104858,69.4795776,248fbf02-0ba3-4208-8478-ba3def019844
Тобольск,Тюменская,"Тюменская обл, г Тобольск",99698,UTC+5,58.2017299,68.2538558,6d7c3e9e-8d6d-490a-a650-8257dbf5ec36
Тюмень,Тюменская,г Тюмень,581758,UTC+5,57.1529744,65.5344099,9ae64229-9f7b-4149-b27a-d1f6ec74b5ce
Ялуторовск,Тюменская,"Тюменская обл, г Ялуторовск",36494,UTC+5,56.6547289,66.3122992,2771f01d-b335-40ba-ac30-11a7d3b43c26
Белоярский,Ханты-Мансийский Автономный округ - Югра,"Ханты-Мансийский Автономный округ - Югра АО, г Белоярский",20283,UTC+5,63.7121099,66.6772226,db0b028c-2da0-4fb9-af00-6fed7a7644a0
Когалым,Ханты-Мансийский Автономный округ - Югра,"Ханты-Мансийский Автономный округ - Югра АО, г Когалым",58192,UTC+5,62.2639527,74.4829794,5a08166f-cfaa-4e95-8233-f0d473883bd3
Лангепас,Ханты-Мансийский Автономный округ - Югра,"Ханты-Мансийский Автономный округ - Югра АО, г Лангепас",41675,UTC+5,61.2536939,75.1807763,149e651b-5dd3-480f-a372-5174576609f6
Лянтор,Ханты-Мансийский Автономный округ - Югра,"Ханты-Мансийский Автономный округ - Югра АО, Сургутский р-н, г Лянтор",38922,UTC+5,61.6392863,72.179409,e7e90d82-aecc-4e9c-a373-3a7afcd5fed3
Мегион,Ханты-Мансийский Автономный округ - Югра,"Ханты-Мансийский Автономный округ - Югра АО, г Мегион",49471,UTC+5,61.0318712,76.1025878,d9c157ca-fd05-4efc-ae0c-16927612a0c8
Нефтеюганск,Ханты-Мансийский Автономный округ - Югра,"Ханты-Мансийский Автономный округ - Югра АО, г Нефтеюганск",123276,UTC+5,61.0882676,72.6164079,45906532-143b-48c2-9af3-f480dc19c7bf
Нижневартовск,Ханты-Мансийский Автономный округ - Югра,"Ханты-Мансийский Автономный округ - Югра АО, г Нижневартовск",251860,UTC+5,60.9396698,76.5696184,0bf0f4ed-13f8-446e-82f6-325498808076
Нягань,Ханты-Мансийский Автономный округ - Югра,"Ханты-Мансийский Автономный округ - Югра АО, г Нягань",54903,UTC+5,62.1454701,65.3946047,06157075-a993-404d-b940-0a103131dc66
Покачи,Ханты-Мансийский Автономный округ - Югра,"Ханты-Мансийский Автономный округ - Югра АО, г Покачи",17053,UTC+5,61.7422169,75.5941517,8bac4b94-1d16-42b5-b5c6-211aa52f3216
Пыть-Ях,Ханты-Мансийский Автономный округ - Югра,"Ханты-Мансийский Автономный округ - Югра АО, г Пыть-Ях",41453,UTC+5,60.7585833,72.8365617,130857a0-7059-4f18-9a13-c17ef6c4f9ca
Радужный,Ханты-Мансийский Автономный округ - Югра,"Ханты-Мансийский Автономный округ - Югра АО, г Радужный",43394,UTC+5,62.1342888,77.4584094,394a840f-9502-406f-a8be-3a2aa9e8f075
Советский,Ханты-Мансийский Автономный округ - Югра,"Ханты-Мансийский Автономный округ - Югра АО, г Советский",26434,UTC+5,61.3706913,63.5667222,b2487322-b3b1-48fc-a462-cf06c36fac91
Сургут,Ханты-Мансийский Автономный округ - Югра,"Ханты-Мансийский Автономный округ - Югра АО, г Сургут",306703,UTC+5,61.2541083,73.3961587,f1eb1809-47d4-4f0b-9a74-fa416e9d3df2
Урай,Ханты-Мансийский Автономный округ - Югра,"Ханты-Мансийский Автономный округ - Югра АО, г Урай",39435,UTC+5,60.1296954,64.8038508,610abc14-c127-4d7c-8697-31cb5c7c47f2
Ханты-Мансийск,Ханты-Мансийский Автономный округ - Югра,г Ханты-Мансийск,79410,UTC+5,61.0023984,69.0184798,d680d1a9-ff89-42c0-b39f-143d2ffb520a
Югорск,Ханты-Мансийский Автономный округ - Югра,"Ханты-Мансийский Автономный округ - Югра АО, г Югорск",34066,UTC+5,61.3123568,63.3365484,abb05e81-bd8b-4e44-abf7-384c9eba3407
Аша,Челябинская,"Челябинская обл, г Аша",31916,UTC+5,54.9906527,57.2783953,c1c960ba-28ed-4a23-9663-668a10e8dbc1
Бакал,Челябинская,"Челябинская обл, Саткинский р-н, г Бакал",20953,UTC+5,54.9406399,58.8051698,f0eff629-59f9-46e3-a3e1-70003376fbd8
Верхнеуральск,Челябинская,"Челябинская обл, г Верхнеуральск",9459,UTC+5,53.8760961,59.2169852,e4a3d40b-d937-4eef-900f-e16a2244a4c1
Верхний Уфалей,Челябинская,"Челябинская обл, г Верхний Уфалей",30504,UTC+5,56.0487158,60.2318886,03aa453a-c7d6-4567-9a59-34a9e9cc1eac
Еманжелинск,Челябинская,"Челябинская обл, г Еманжелинск",30218,UTC+5,54.7554548,61.3243477,450daf49-c6ce-4bbd-9e3e-350e6ad3bc6c
Златоуст,Челябинская,"Челябинская обл, г Златоуст",174985,UTC+5,55.1714905,59.6725549,110c731e-d72b-4c37-91cb-03ce33d9e727
Карабаш,Челябинская,"Челябинская обл, г Карабаш",13151,UTC+5,55.4852323,60.2358881,dbca0fdd-89a6-43ad-9bd0-9796236917d7
Карталы,Челябинская,"Челябинская обл, г Карталы",29136,UTC+5,53.0536197,60.6478408,8de6102a-50a8-4bd4-9552-a265cb82b57f
Касли,Челябинская,"Челябинская обл, г Касли",16998,UTC+5,55.8868784,60.7421663,9db9997b-8945-4ae2-9d14-6dfe0dd01c7e
Катав-Ивановск,Челябинская,"Челябинская обл, г Катав-Ивановск",17640,UTC+5,54.7521438,58.1983648,5c0f59dc-daeb-4891-a620-900a59d8cabd
Копейск,Челябинская,"Челябинская обл, г Копейск",137604,UTC+5,55.116665,61.6179185,69462f61-d1da-4e61-a970-3b71c6623002
Коркино,Челябинская,"Челябинская обл, г Коркино",38950,UTC+5,54.8903147,61.4034576,34bc4096-0b85-4b90-bac1-2539cb030041
Куса,Челябинская,"Челябинская обл, г Куса",18792,UTC+5,55.3386053,59.4385778,94812112-feed-454d-a3d2-45ba7bc691d0
Кыштым,Челябинская,"Челябинская обл, г Кыштым",38950,UTC+5,55.7061276,60.5563781,969d3bb6-4d8e-4130-902b-b70571090302
Магнитогорск,Челябинская,"Челябинская обл, г Магнитогорск",408401,UTC+5,53.4072153,58.9791437,988157bf-d6d5-4c2a-80ec-4ad531eea056
Миасс,Челябинская,"Челябинская обл, г Миасс",151812,UTC+5,55.0456457,60.1077572,f2976e80-32e1-4284-8eda-06cf19239cd1
Миньяр,Челябинская,"Челябинская обл, Ашинский р-н, г Миньяр",10195,UTC+5,55.0709557,57.548478,855ef067-23aa-425a-aa9b-cadbfb1f9fff
Нязепетровск,Челябинская,"Челябинская обл, г Нязепетровск",12452,UTC+5,56.0536895,59.6097202,e42b53fb-fed8-4ee7-94f3-6190e179d249
Озерск,Челябинская,"Челябинская обл, г Озерск",82268,UTC+5,55.763154,60.7076198,8192c863-edbf-4825-8523-0612ae80e5a7
Пласт,Челябинская,"Челябинская обл, г Пласт",17344,UTC+5,54.3692764,60.8151894,4828bba2-6758-4e7b-a7ef-ff07f83e9563
Сатка,Челябинская,"Челябинская обл, г Сатка",45465,UTC+5,55.0405288,59.0288975,8bcc16d4-ead7-4938-944c-862c7e6c67aa
Сим,Челябинская,"Челябинская обл, Ашинский р-н, г Сим",14465,UTC+5,54.9907827,57.6900155,b23193d5-43a7-4663-8fba-7ee34ae4db77
Снежинск,Челябинская,"Челябинская обл, г Снежинск",48896,UTC+5,56.0851495,60.7324914,08aad8a8-0067-4161-8389-b75d1da72866
Трехгорный,Челябинская,"Челябинская обл, г Трехгорный",33678,UTC+5,54.8178249,58.4464194,097d2fcb-d22a-4fbd-89bf-27950b7116a3
Троицк,Челябинская,"Челябинская обл, г Троицк",78637,UTC+5,54.0843745,61.5586831,b5ad78c2-cc8f-4769-9a9f-75743d8da02f
Усть-Катав,Челябинская,"Челябинская обл, г Усть-Катав",23586,UTC+5,54.9260812,58.152805,327f11c6-474f-44f9-aff3-8ba1780fcaf0
Чебаркуль,Челябинская,"Челябинская обл, г Чебаркуль",43405,UTC+5,54.9818567,60.3773121,1fe59b79-b019-45d7-bfd9-03b3b2d49cb6
Челябинск,Челябинская,г Челябинск,1130273,UTC+5,55.1602624,61.4008078,a376e68d-724a-4472-be7c-891bdb09ae32
Южноуральск,Челябинская,"Челябинская обл, г Южноуральск",37890,UTC+5,54.448927,61.2581158,2ac904d8-365e-4f49-8ff9-f14f88609535
Юрюзань,Челябинская,"Челябинская обл, Катав-Ивановский р-н, г Юрюзань",12568,UTC+5,54.854662,58.4226698,162b9632-9ebb-4143-80fd-2d0c4a978243
Губкинский,Ямало-Ненецкий,"Ямало-Ненецкий АО, г Губкинский",23340,UTC+5,64.4457594,76.4713274,0cb9e3a5-20fa-4248-8c1d-b31d5ce7f691
Лабытнанги,Ямало-Ненецкий,"Ямало-Ненецкий АО, г Лабытнанги",26948,UTC+5,66.6592841,66.3883009,6552fa92-269f-4b6a-bee5-fe9204463d99
Муравленко,Ямало-Ненецкий,"Ямало-Ненецкий АО, г Муравленко",33401,UTC+5,63.7940552,74.4948635,9d4ebe8d-29d8-4ddc-882d-75a5c5aec652
Надым,Ямало-Ненецкий,"Ямало-Ненецкий АО, г Надым",46550,UTC+5,65.5377966,72.5182736,24a3f6a2-5994-4ede-90d4-dc7fe64418b8
Новый Уренгой,Ямало-Ненецкий,"Ямало-Ненецкий АО, г Новый Уренгой",104144,UTC+5,66.0839433,76.6809681,4136d0c1-3ff7-44c0-aa30-fa2e7eb96ef7
Ноябрьск,Ямало-Ненецкий,"Ямало-Ненецкий АО, г Ноябрьск",110572,UTC+5,63.2018039,75.4510581,131c6e49-9bc5-484d-b65a-ee7f5d250418
Салехард,Ямало-Ненецкий,г Салехард,42494,UTC+5,66.5492077,66.6085318,0c1b7f05-9fd9-4ec9-a2cc-5ee2799be1e6
Тарко-Сале,Ямало-Ненецкий,"Ямало-Ненецкий АО, г Тарко-Сале",20372,UTC+5,64.9118803,77.7610236,b998fcc0-d770-4754-9133-d669a2b2ba5d
Алексеевка,Белгородская,"Белгородская обл, г Алексеевка",39026,UTC+3,50.6299647,38.6880342,94969f84-fff4-4ddf-9677-b912b4b2aa3e
Белгород,Белгородская,г Белгород,356426,UTC+3,50.5976472,36.5856652,02e9c019-ab4d-4fa0-928e-d6c0a41dc256
Бирюч,Белгородская,"Белгородская обл, г Бирюч",7842,UTC+3,50.6484585,38.4005083,eaaf5809-d1e2-4d93-8f05-85dd598cc403
Валуйки,Белгородская,"Белгородская обл, г Валуйки",35322,UTC+3,50.2111207,38.0998772,fe7eea4a-875a-4235-aa61-81c2a37a0440
Грайворон,Белгородская,"Белгородская обл, г Грайворон",6234,UTC+3,50.4862958,35.6663877,51c31ef5-10b3-4011-8e1c-7e7d452afd1b
Губкин,Белгородская,"Белгородская обл, г Губкин",88562,UTC+3,51.2837123,37.5347759,98b1ec30-6107-4f99-ae3a-9d82492f30a1
Короча,Белгородская,"Белгородская обл, г Короча",5877,UTC+3,50.8129041,37.1896436,76fecead-fc02-459a-bce4-848698e645fe
Новый Оскол,Белгородская,"Белгородская обл, г Новый Оскол",19530,UTC+3,50.7633747,37.8775484,f565b329-4041-4fd2-aa0a-debd5f7c3857
Старый Оскол,Белгородская,"Белгородская обл, г Старый Оскол",221163,UTC+3,51.2967101,37.8350182,9f5e86b1-b893-43dc-9dd4-ac66573b17d1
Строитель,Белгородская,"Белгородская обл, г Строитель",23933,UTC+3,50.7845099,36.4887648,19c9f6de-45cd-4c76-9839-abd571698ced
Шебекино,Белгородская,"Белгородская обл, г Шебекино",44277,UTC+3,50.4004883,36.8877889,dc80ddf0-b1ac-4344-98e8-fcfa5295a0a3
Брянск,Брянская,г Брянск,415640,UTC+3,53.2419535,34.3652146,414b71cf-921e-4bfc-b6e0-f7395d16aaef
Дятьково,Брянская,"Брянская обл, г Дятьково",29438,UTC+3,53.5958178,34.3551812,fd37b6f0-2406-41ca-86bc-57dd58fd71f4
Жуковка,Брянская,"Брянская обл, г Жуковка",18269,UTC+3,53.5340397,33.7302579,bd51e883-748a-4c55-ac0a-eee31be1433e
Злынка,Брянская,"Брянская обл, г Злынка",5507,UTC+3,52.4267015,31.7360399,9491aba8-fbc1-4da8-8ede-8d49690c393a
Карачев,Брянская,"Брянская обл, г Карачев",19715,UTC+3,53.1296524,34.9888727,6f39b866-1fed-4add-aa00-e76992516660
Клинцы,Брянская,"Брянская обл, г Клинцы",62510,UTC+3,52.7529119,32.233911,59cb1f1f-16f9-47eb-9487-14a6c00e8621
Мглин,Брянская,"Брянская обл, г Мглин",7916,UTC+3,53.0599771,32.8468129,a4162075-13cb-4f4a-9974-ef042c8be149
Новозыбков,Брянская,"Брянская обл, г Новозыбков",40552,UTC+3,52.537173,31.9357991,cf4dd9d7-d152-4140-bed2-59d8be5a4e2c
Почеп,Брянская,"Брянская обл, г Почеп",17933,UTC+3,52.9154851,33.4744058,434c6101-648e-4266-8aca-bbbc80856d7a
Севск,Брянская,"Брянская обл, г Севск",7282,UTC+3,52.1483358,34.4918415,263c5f6f-335b-4cfa-a234-3c61488c3729
Сельцо,Брянская,"Брянская обл, г Сельцо",17933,UTC+3,53.3739884,34.1059172,485f4c4d-aced-4b94-b975-88e72b7dcb72
Стародуб,Брянская,"Брянская обл, г Стародуб",19010,UTC+3,52.5852257,32.760403,78e19000-cb0d-4e86-8205-242ee9de9e75
Сураж,Брянская,"Брянская обл, г Сураж",11640,UTC+3,53.0170888,32.3938878,565317d8-daf3-4df1-bf3d-6703b0d1500f
Трубчевск,Брянская,"Брянская обл, г Трубчевск",15014,UTC+3,52.5791734,33.7660547,7c080d22-1f3c-43b0-ba63-1e7de99724c9
Унеча,Брянская,"Брянская обл, г Унеча",26196,UTC+3,52.8461199,32.6757629,6a2d5db9-1871-4f1d-b226-bbc6b8400a44
Фокино,Брянская,"Брянская обл, г Фокино",13874,UTC+3,53.4554145,34.4159238,8d7c89e7-d9b9-4d7a-907c-a654b3a4d23d
Александров,Владимирская,"Владимирская обл, г Александров",61544,UTC+3,56.391819,38.7111123,59e55956-69a2-432f-b880-74cf8ec0b9fe
Владимир,Владимирская,г Владимир,348256,UTC+3,56.1280804,40.4084376,f66a00e6-179e-4de9-8ecb-78b0277c9f10
Вязники,Владимирская,"Владимирская обл, г Вязники",41252,UTC+3,56.29773,42.2687398,0114e0c6-4060-4473-bc44-779e5a85e9dd
Гороховец,Владимирская,"Владимирская обл, г Гороховец",14015,UTC+3,56.2021036,42.6926111,e3bc9262-6bcf-42f8-a0bd-a8a00def58bc
Гусь-Хрустальный,Владимирская,"Владимирская обл, г Гусь-Хрустальный",60773,UTC+3,55.6198751,40.6579929,aa4aa0d7-f97f-4974-9291-c0a530a1ccb6
Камешково,Владимирская,"Владимирская обл, г Камешково",13113,UTC+3,56.3490152,40.9955183,13cf312e-735f-4faa-8a7d-9a2622d50438
Карабаново,Владимирская,"Владимирская обл, Александровский р-н, г Карабаново",14868,UTC+3,56.3131822,38.7034257,4f178a20-53a7-4032-b62b-7337315e0fc1
Киржач,Владимирская,"Владимирская обл, г Киржач",30044,UTC+3,56.1486863,38.8635701,115db243-1238-412f-a2a1-6d53ef30ba9e
Ковров,Владимирская,"Владимирская обл, г Ковров",145492,UTC+3,56.3554349,41.3170576,0b4978e2-e64c-4db1-b84d-93cf34bdb04b
Кольчугино,Владимирская,"Владимирская обл, г Кольчугино",45804,UTC+3,56.3327254,39.391336,8f9faad4-ff93-471d-b0c0-c8e5c0162dee
Костерево,Владимирская,"Владимирская обл, Петушинский р-н, г Костерево",9136,UTC+3,55.9337222,39.6247398,50b6831d-52f4-4905-93d7-8e42812cd947
Курлово,Владимирская,"Владимирская обл, Гусь-Хрустальный р-н, г Курлово",6791,UTC+3,55.452698,40.6124108,4f68f8c7-bf54-48a6-8165-0313d75a83c2
Лакинск,Владимирская,"Владимирская обл, Собинский р-н, г Лакинск",15707,UTC+3,56.0180587,39.956551,67eb946d-db25-4ad2-9852-6436ed35b39e
Меленки,Владимирская,"Владимирская обл, г Меленки",15208,UTC+3,55.3387515,41.6340046,710f2d29-5c22-4d4d-be27-04713381c676
Муром,Владимирская,"Владимирская обл, г Муром",116078,UTC+3,55.5630311,42.0231362,0d7d5d87-f0a6-428f-b655-d3be106c64a2
Петушки,Владимирская,"Владимирская обл, г Петушки",15167,UTC+3,55.9298134,39.4508075,b7ba6bfc-4b0c-4b05-88bd-267d50b36850
Покров,Владимирская,"Владимирская обл, Петушинский р-н, г Покров",17762,UTC+3,55.9166398,39.1734526,f1c2252b-c3da-43f4-86ea-5f05812e99d5
Радужный,Владимирская,"Владимирская обл, г Радужный",18212,UTC+3,55.9960277,40.3321855,c0ac6992-e48e-4648-b176-f56e7bcda57b
Собинка,Владимирская,"Владимирская обл, г Собинка",19482,UTC+3,55.9939169,40.0179653,d33946c4-bda9-43a5-b5c4-1157ae28149a
Струнино,Владимирская,"Владимирская обл, Александровский р-н, г Струнино",14372,UTC+3,56.3749967,38.5839667,9f490940-079f-4bf9-9931-48952c1bea4f
Судогда,Владимирская,"Владимирская обл, г Судогда",11848,UTC+3,55.9498056,40.8562939,469a6b26-cb42-4db7-8fe7-758b946956c4
Суздаль,Владимирская,"Владимирская обл, г Суздаль",10535,UTC+3,56.4274441,40.4525692,f347f78e-f991-4b0b-bfbd-600ac927b009
Юрьев-Польский,Владимирская,"Владимирская обл, г Юрьев-Польский",19588,UTC+3,56.4937757,39.6680539,4859c31b-fba4-460a-9543-befc791da8a9
Бобров,Воронежская,"Воронежская обл, г Бобров",19738,UTC+3,51.0901649,40.0318256,0a50bda2-e801-4e11-bcc0-8c6469d46a5d
Богучар,Воронежская,"Воронежская обл, г Богучар",11811,UTC+3,49.9352454,40.5590801,33b88f52-819d-4ba5-aa70-3fe4ccfd33d6
Борисоглебск,Воронежская,"Воронежская обл, г Борисоглебск",65585,UTC+3,51.3655754,42.1008334,e5c49f70-5235-49ef-a16b-816114b36566
Бутурлиновка,Воронежская,"Воронежская обл, г Бутурлиновка",27208,UTC+3,50.8311818,40.5976923,b3c350d7-8c81-4016-b198-f197536e8321
Воронеж,Воронежская,г Воронеж,889680,UTC+3,51.6593332,39.1969229,5bf5ddff-6353-4a3d-80c4-6fb27f00c6c1
Калач,Воронежская,"Воронежская обл, г Калач",20046,UTC+3,50.4242134,41.0162014,57a863b5-02a7-482a-8320-a3d165c4bfd0
Лиски,Воронежская,"Воронежская обл, г Лиски",55864,UTC+3,50.9945626,39.5184909,e0a82358-88c2-44ab-b402-c450e1aa52a8
Нововоронеж,Воронежская,"Воронежская обл, г Нововоронеж",32635,UTC+3,51.3091524,39.2162843,c7cdacb9-6a1e-4402-8bc6-6ec36a42d05c
Новохоперск,Воронежская,"Воронежская обл, г Новохоперск",6849,UTC+3,51.0952211,41.6173404,43fe280f-6fa3-4a06-8daf-94586e2bea44
Острогожск,Воронежская,"Воронежская обл, г Острогожск",33842,UTC+3,50.8677905,39.0407746,8434550d-dd9b-4bc7-8e5b-d43a991753e2
Павловск,Воронежская,"Воронежская обл, г Павловск",25126,UTC+3,50.453455,40.136874,f4a89d85-b770-4d58-b205-31165a9958b8
Поворино,Воронежская,"Воронежская обл, г Поворино",17692,UTC+3,51.1954419,42.2472726,9cb55edf-0fb2-46af-8f00-02b15c2f1644
Россошь,Воронежская,"Воронежская обл, г Россошь",62865,UTC+3,50.1701949,39.6226965,1ed74fcf-2dd0-460a-99b9-029ca382517d
Семилуки,Воронежская,"Воронежская обл, г Семилуки",26025,UTC+3,51.6951644,39.0190454,15d507b5-f67e-4ee6-9f25-683562699fac
Эртиль,Воронежская,"Воронежская обл, г Эртиль",11387,UTC+3,51.830932,40.8074182,fdbadb36-e4f6-4843-8f1f-80bd4fb4381e
Вичуга,Ивановская,"Ивановская обл, г Вичуга",37609,UTC+3,57.2044698,41.9132201,3d518b4e-86b2-48d5-bcf3-48f107165918
Гаврилов Посад,Ивановская,"Ивановская обл, г Гаврилов Посад",6434,UTC+3,56.5586946,40.1228906,3f81927e-bc4b-45c7-a962-b80c0e216115
Заволжск,Ивановская,"Ивановская обл, г Заволжск",12045,UTC+3,57.4918141,42.1375625,3bf1c329-e556-4d56-82d0-3b1b42b298da
Иваново,Ивановская,г Иваново,409277,UTC+3,56.9993792,40.9728272,40c6863e-2a5f-4033-a377-3416533948bd
Кинешма,Ивановская,"Ивановская обл, г Кинешма",88113,UTC+3,57.4425463,42.168914,df284e77-a45c-411d-8901-94c91f4a92e5
Комсомольск,Ивановская,"Ивановская обл, г Комсомольск",8693,UTC+3,57.0273052,40.3776851,d812b7bf-68de-4e11-95d6-39f7c8ec111e
Кохма,Ивановская,"Ивановская обл, г Кохма",29408,UTC+3,56.9324606,41.0931657,022e301b-514f-477f-9d1e-f60430c40429
Наволоки,Ивановская,"Ивановская обл, Кинешемский р-н, г Наволоки",10207,UTC+3,57.4679066,41.9608002,36d31ef0-a525-4be4-a6e9-28ced781dfae
Плес,Ивановская,"Ивановская обл, Приволжский р-н, г Плес",2341,UTC+3,57.4606031,41.5122672,8bb29a7a-de9c-4c21-ad15-3af39f0a41fa
Приволжск,Ивановская,"Ивановская обл, г Приволжск",16749,UTC+3,57.3805743,41.2808565,43706edd-5cf4-4400-8e60-03ea3660c25f
Пучеж,Ивановская,"Ивановская обл, г Пучеж",8583,UTC+3,56.9820688,43.1683321,a85feb12-89e9-441d-956a-8510493cdc8d
Родники,Ивановская,"Ивановская обл, г Родники",26318,UTC+3,57.1025975,41.7298834,90328f6e-d961-48ba-ab03-366d93df3c07
Тейково,Ивановская,"Ивановская обл, г Тейково",34993,UTC+3,56.8542719,40.5353874,09a16212-dcce-4f9a-be1a-515911beaba3
Фурманов,Ивановская,"Ивановская обл, г Фурманов",36149,UTC+3,57.2539276,41.1054432,9d56ad01-abe9-4f14-89e5-9af4544b94b2
Шуя,Ивановская,"Ивановская обл, г Шуя",58528,UTC+3,56.8560234,41.3800939,a6c7e92c-79cf-4b47-beb6-40192295c559
Южа,Ивановская,"Ивановская обл, г Южа",14170,UTC+3,56.5926877,42.0458099,16c1333c-8766-4135-a29a-e08f959e60bc
Юрьевец,Ивановская,"Ивановская обл, г Юрьевец",10205,UTC+3,57.3177781,43.1110401,be9d618e-8dc4-498f-aed6-03ce38f82683
Балабаново,Калужская,"Калужская обл, Боровский р-н, г Балабаново",26337,UTC+3,55.1773714,36.6566951,ef65fa9c-6516-4175-a00a-6410a4a6f2d6
Белоусово,Калужская,"Калужская обл, Жуковский р-н, г Белоусово",8432,UTC+3,55.0956803,36.677629,4601e932-0ca3-474f-a8a6-e67cc034b346
Боровск,Калужская,"Калужская обл, г Боровск",12283,UTC+3,55.2130096,36.4926251,db14bfff-fea7-469e-82f4-ccf4209d6753
